{
  "interfaces": [
    {"name": "50045005",
     "path": [[40.6711401,-77.7651531], [40.1756141,-77.7647283]]
    },
    {"name": "CENTRAL",
     "path": [[40.5711401,-77.3651531], [40.1756141,-77.1647283], [39.5863499,-76.2200932]]
    },
    {"name": "WEST",
     "path": [[40.6711401,-77.5651531], [40.1756141,-77.5647283], [39.0714409,-77.2451977]]
    },
    {"name": "EAST",
     "path": [[41.2348329,-74.8089585], [40.5348329,-75.5089585], [40.5010341,-75.6893746], [39.611726,-75.9835312]]
    },
    {"name": "BED-BLA",
     "path": [[39.6242652,-78.3359313], [39.3694047,-78.4475112]]
    },
    {"name": "APSOUTH",
     "path": [[39.2873385,-78.8805867], [39.0691052,-78.9736272], [39.0091057,-79.3499089]]
    },
    {"name": "AEP/DOM",
     "path": [[37.6862744,-80.5577183], [37.2764363,-82.1402549]]
    }
  ],
  "nodes": [
    {"name": "Joshua Falls", "state": "VA", "lat": 37.42592545, "lon": -79.03761865, "index": 0},
    {"name": "Cloverdale", "state": "VA", "lat": 37.3813517, "lon": -79.89768505, "index": 1},
    {"name": "Jacksons Ferry", "state": "VA", "lat": 36.87896825, "lon": -80.82547185, "index": 2},
    {"name": "Wyoming", "state": "WV", "lat": 37.65800385, "lon": -81.67819975, "index": 3},
    {"name": "Axton", "state": "VA", "lat": 36.63513365, "lon": -79.70672785, "index": 4},
    {"name": "Broadford", "state": "VA", "lat": 36.921858, "lon": -81.68083905, "index": 5},
    {"name": "Baker", "state": "WV", "lat": 38.180846, "lon": -82.6106, "index": 6},
    {"name": "Culloden", "state": "WV", "lat": 38.4142739, "lon": -82.08153965, "index": 7},
    {"name": "Amos", "state": "WV", "lat": 38.47408595, "lon": -81.8308711, "index": 8},
    {"name": "Gavin", "state": "WV", "lat": 38.9417865, "lon": -82.122438, "index": 9},
    {"name": "Mountaineer", "state": "WV", "lat": 38.9753247, "lon": -81.94392085, "index": 10},
    {"name": "North Proctorville", "state": "OH", "lat": 38.4773956, "lon": -82.39586235, "index": 11},
    {"name": "Flatlick", "state": "OH", "lat": 39.08512085, "lon": -82.33301285, "index": 12},
    {"name": "Marysville", "state": "OH", "lat": 40.3334921, "lon": -83.4325576, "index": 13},
    {"name": "Maliszewski", "state": "OH", "lat": 40.1814225, "lon": -83.01306015, "index": 14},
    {"name": "Dumont", "state": "IN", "lat": 41.52304545, "lon": -86.36229155, "index": 15},
    {"name": "Kammer", "state": "WV", "lat": 39.83488805, "lon": -80.80766205, "index": 16},
    {"name": "Belmont", "state": "WV", "lat": 39.3443044, "lon": -81.30986815, "index": 17},
    {"name": "Hanging Rock", "state": "OH", "lat": 38.5690807, "lon": -82.7754593, "index": 18},
    {"name": "Don Marquis", "pjm": "MARQUIS", "state": "OH", "lat": 39.02228025, "lon": -83.01147225, "index": 19},
    {"name": "Jefferson", "state": "IN", "lat": 38.74176625, "lon": -85.43978335, "index": 20},
    {"name": "Rockport", "state": "IN", "lat": 37.9290678, "lon": -87.03051565, "index": 21},
    {"name": "Greentown", "state": "IN", "lat": 40.47334655, "lon": -85.91599345, "index": 22},
    {"name": "Sullivan (IN)", "pjm": "SULLIVAN-AEP", "state": "IN", "lat": 39.23578485, "lon": -87.54717355, "index": 23},
    {"name": "Cook", "state": "MI", "lat": 41.9748381, "lon": -86.5574813, "index": 24},
    {"name": "Wilton Center", "pjm": "112 WILTON", "state": "IL", "lat": 41.3983968, "lon": -87.95338875, "index": 25},
    {"name": "Collins", "pjm": "23 COLLINS", "state": "IL", "lat": 41.35222505, "lon": -88.3489287, "index": 26},
    {"name": "South Canton", "state": "OH", "lat": 40.71970505, "lon": -81.41778945, "index": 27},
    {"name": "Plano", "pjm": "167 PLANO", "state": "IL", "lat": 41.68343675, "lon": -88.4791761, "index": 28},
    {"name": "Lexington", "state": "VA", "lat": 37.8678281, "lon": -79.4211477, "index": 29},
    {"name": "Bath County", "state": "VA", "lat": 38.2092447, "lon": -79.80150105, "index": 30},
    {"name": "Valley", "state": "VA", "lat": 38.31358695, "lon": -78.97275215, "index": 31},
    {"name": "Dooms", "state": "VA", "lat": 38.10660145, "lon": -78.85103345, "index": 32},
    {"name": "Cunningham", "state": "VA", "lat": 37.8688868, "lon": -78.37429225, "index": 33},
    {"name": "Elmont", "state": "VA", "lat": 37.69740005, "lon": -77.4853009, "index": 34},
    {"name": "Chickahominy", "state": "VA", "lat": 37.43718415, "lon": -77.15946615, "index": 35},
    {"name": "Surry", "state": "VA", "lat": 37.16174015, "lon": -76.695562, "index": 36},
    {"name": "Suffolk", "state": "VA", "lat": 36.71066105, "lon": -76.58109605, "index": 37},
    {"name": "Yadkin", "state": "VA", "lat": 36.7630829, "lon": -76.35542035, "index": 38},
    {"name": "Fentress", "state": "VA", "lat": 36.69021825, "lon": -76.19022845, "index": 39},
    {"name": "Septa", "state": "VA", "lat": 37.0147056, "lon": -76.7395073, "index": 40},
    {"name": "Carson", "state": "VA", "lat": 37.08547265, "lon": -77.40697505, "index": 41},
    {"name": "Clover", "state": "VA", "lat": 36.8660298, "lon": -78.70685935, "index": 42},
    {"name": "Midlothian", "state": "VA", "lat": 37.50273815, "lon": -77.70509725, "index": 43},
    {"name": "North Anna", "state": "VA", "lat": 38.06179375, "lon": -77.79983285, "index": 44},
    {"name": "Ladysmith", "state": "VA", "lat": 38.04714465, "lon": -77.55104185, "index": 45},
    {"name": "Morrisville", "state": "VA", "lat": 38.5004055, "lon": -77.70966765, "index": 46},
    {"name": "Mount Storm", "pjm": "MT STORM", "state": "WV", "lat": 39.20266995, "lon": -79.27242995, "index": 47},
    {"name": "502JCT", "state": "WV", "lat": 39.74011175, "lon": -80.03423095, "index": 48},
    {"name": "North Longview", "pjm": "NORTH LONGVIEW", "state": "WV", "lat": 39.72736035, "lon": -79.9604595, "index": 49},
    {"name": "Fort Martin", "pjm": "FORTMARTIN", "state": "WV", "lat": 39.7180933, "lon": -79.9345064, "index": 50},
    {"name": "Harrison", "state": "WV", "lat": 39.3798569, "lon": -80.33268575, "index": 51},
    {"name": "Pruntytown", "state": "WV", "lat": 39.35085055, "lon": -80.06609565, "index": 52},
    {"name": "Greenland Gap", "state": "WV", "lat": 39.20219605, "lon": -79.22249795, "index": 53},
    {"name": "Meadow Brook", "pjm": "MEADOWBROOK", "state": "VA", "lat": 39.05681715, "lon": -78.25456385, "index": 54},
    {"name": "Doubs", "state": "MD", "lat": 39.2960315, "lon": -77.51538995, "index": 55},
    {"name": "Loudoun", "state": "VA", "lat": 38.89485725, "lon": -77.56981735, "index": 56},
    {"name": "Chancellor", "state": "VA", "lat": 38.2622476, "lon": -77.5895986, "index": 57},
    {"name": "Bristers", "state": "VA", "lat": 38.56340575, "lon": -77.5966555, "index": 58},
    {"name": "Ox", "state": "VA", "lat": 38.72327855, "lon": -77.28916705, "index": 59},
    {"name": "Clifton", "state": "VA", "lat": 38.7813704, "lon": -77.39958285, "index": 60},
    {"name": "Pleasant View", "state": "VA", "lat": 39.0760888, "lon": -77.53063025, "index": 61},
    {"name": "Possum Point", "state": "VA", "lat": 38.5514041, "lon": -77.27955935, "index": 62},
    {"name": "Burches Hill", "pjm": "BURCHESHILL", "state": "MD", "lat": 38.738059, "lon": -76.87277555, "index": 63},
    {"name": "Chalk Point", "pjm": "CHALKPT", "state": "MD", "lat": 38.5600374, "lon": -76.69005275, "index": 64},
    {"name": "Calvert Cliffs", "pjm": "CALVERTC", "state": "MD", "lat": 38.4329213, "lon": -76.44452335, "index": 65},
    {"name": "Waugh Chapel", "pjm": "WAUGHCHAPEL", "state": "MD", "lat": 39.0463021, "lon": -76.6783691, "index": 66},
    {"name": "Brighton", "state": "MD", "lat": 39.1855578, "lon": -77.03774215, "index": 67},
    {"name": "Conastone", "state": "MD", "lat": 39.6871101, "lon": -76.54158715, "index": 68},
    {"name": "Wylie Ridge", "pjm": "WYLIERIDGE", "state": "WV", "lat": 40.4549642, "lon": -80.57098385, "index": 69},
    {"name": "Bedington", "state": "WV", "lat": 39.51607595, "lon": -77.91752815, "index": 70},
    {"name": "Black Oak", "pjm": "BLACKOAK", "state": "MD", "lat": 39.4995123, "lon": -78.91708015, "index": 71},
    {"name": "Hatfield", "state": "PA", "lat": 39.8581005, "lon": -79.93491415, "index": 72},
    {"name": "Ronco", "state": "PA", "lat": 39.86067425, "lon": -79.91734565, "index": 73},
    {"name": "Yukon", "state": "PA", "lat": 40.2098434, "lon": -79.72533165, "index": 74},
    {"name": "Keystone", "state": "PA", "lat": 40.6573801, "lon": -79.340837, "index": 75},
    {"name": "Conemaugh", "state": "PA", "lat": 40.3892548, "lon": -79.06048175, "index": 76},
    {"name": "Hunterstown", "state": "PA", "lat": 39.86799925, "lon": -77.16925625, "index": 77},
    {"name": "Wake", "state": "NC", "lat": 35.7819095, "lon": -78.45408795, "index": 78},
    {"name": "Durham", "state": "NC", "lat": 35.95057415, "lon": -78.75171665, "index": 79},
    {"name": "Mayo", "state": "NC", "lat": 36.5248117, "lon": -78.89132025, "index": 80},
    {"name": "Person", "state": "NC", "lat": 36.48107015, "lon": -79.05202745, "index": 81},
    {"name": "Cumberland (NC)", "state": "NC", "lat": 34.87846745, "lon": -78.78249765, "index": 82},
    {"name": "Richmond", "state": "NC", "lat": 34.8436058, "lon": -79.74735265, "index": 83},
    {"name": "Newport Tie", "state": "NC", "lat": 34.99794075, "lon": -81.1250639, "index": 84},
    {"name": "McGuire", "state": "NC", "lat": 35.4219303, "lon": -80.9457314, "index": 85},
    {"name": "Woodleaf", "state": "NC", "lat": 35.7230068, "lon": -80.60174345, "index": 86},
    {"name": "Pleasant Garden", "state": "NC", "lat": 35.94145415, "lon": -79.75605365, "index": 87},
    {"name": "Unknown NC", "state": "NC", "lat": 35.87172495, "lon": -78.93211125, "index": 88},
    {"name": "Antioch", "state": "NC", "lat": 36.1774099, "lon": -81.03737715, "index": 89},
    {"name": "Cliffside", "state": "NC", "lat": 35.22711135, "lon": -81.74837705, "index": 90},
    {"name": "Jocassee", "state": "SC", "lat": 34.95418775, "lon": -82.91730525, "index": 91},
    {"name": "Oconee", "state": "SC", "lat": 34.7924972, "lon": -82.89559545, "index": 92},
    {"name": "South Hall", "state": "GA", "lat": 34.2183097, "lon": -83.80429035, "index": 93},
    {"name": "Norcross", "state": "GA", "lat": 33.93256065, "lon": -84.21387435, "index": 94},
    {"name": "Bull Sluice", "state": "GA", "lat": 33.96661495, "lon": -84.37953025, "index": 95},
    {"name": "Big Shanty", "state": "GA", "lat": 33.9945082, "lon": -84.5694065, "index": 96},
    {"name": "Bowen", "state": "GA", "lat": 34.12153735, "lon": -84.92322745, "index": 97},
    {"name": "Villa Rica", "state": "GA", "lat": 33.7410894, "lon": -84.8559362, "index": 98},
    {"name": "Union", "state": "GA", "lat": 33.55356205, "lon": -84.5098883, "index": 99},
    {"name": "O'Hara", "state": "GA", "lat": 33.48194115, "lon": -84.3675059, "index": 100},
    {"name": "Wansley", "state": "GA", "lat": 33.4109864, "lon": -85.0318086, "index": 101},
    {"name": "Klondike", "state": "GA", "lat": 33.6363592, "lon": -84.12482505, "index": 102},
    {"name": "Scherer", "state": "GA", "lat": 33.06087825, "lon": -83.81374775, "index": 103},
    {"name": "Warthen", "state": "GA", "lat": 33.1199252, "lon": -82.8606355, "index": 104},
    {"name": "Thomson Primary", "state": "GA", "lat": 33.4539771, "lon": -82.41491675, "index": 105},
    {"name": "Vogtle", "state": "GA", "lat": 33.14580025, "lon": -81.7632687, "index": 106},
    {"name": "West McIntosh", "state": "GA", "lat": 32.3543093, "lon": -81.18272605, "index": 107},
    {"name": "Thalmann", "state": "GA", "lat": 31.29365855, "lon": -81.68164375, "index": 108},
    {"name": "Hatch", "state": "GA", "lat": 31.93446595, "lon": -82.3488325, "index": 109},
    {"name": "Bonaire", "state": "GA", "lat": 32.5649849, "lon": -83.60126855, "index": 110},
    {"name": "North Tifton", "state": "GA", "lat": 31.47877915, "lon": -83.5496521, "index": 111},
    {"name": "Fortson", "state": "GA", "lat": 32.6100845, "lon": -84.91669895, "index": 112},
    {"name": "Duval", "state": "FL", "lat": 30.27263785, "lon": -81.95337295, "index": 113},
    {"name": "Raccoon Creek", "state": "GA", "lat": 31.36761045, "lon": -84.10780905, "index": 114},
    {"name": "Farley", "state": "AL", "lat": 31.2236856, "lon": -85.11752665, "index": 115},
    {"name": "Rice", "state": "FL", "lat": 29.7234038, "lon": -81.76580075, "index": 116},
    {"name": "Poinsett", "state": "FL", "lat": 28.38416555, "lon": -80.91604475, "index": 117},
    {"name": "Midway", "state": "FL", "lat": 27.37258185, "lon": -80.41673545, "index": 118},
    {"name": "Martin", "state": "FL", "lat": 27.05693535, "lon": -80.56085585, "index": 119},
    {"name": "Corbett", "state": "FL", "lat": 26.7095657, "lon": -80.37770395, "index": 120},
    {"name": "Andytown", "state": "FL", "lat": 26.03516685, "lon": -80.44056415, "index": 121},
    {"name": "Conservation", "state": "FL", "lat": 26.1963219, "lon": -80.29738515, "index": 122},
    {"name": "Orange River", "state": "FL", "lat": 26.67282785, "lon": -81.768955, "index": 123},
    {"name": "Levee", "state": "FL", "lat": 25.8138722, "lon": -80.43504955, "index": 124},
    {"name": "Snowdoun", "state": "AL", "lat": 32.228988, "lon": -86.2609148, "index": 125},
    {"name": "Autaugaville", "state": "AL", "lat": 32.3776702, "lon": -86.5844214, "index": 126},
    {"name": "Billingsley", "state": "AL", "lat": 32.6512297, "lon": -86.7329943, "index": 127},
    {"name": "South Bessemer", "state": "AL", "lat": 33.21967275, "lon": -87.06393065, "index": 128},
    {"name": "Miller", "state": "AL", "lat": 33.6303006, "lon": -87.0561576, "index": 129},
    {"name": "Clay", "state": "AL", "lat": 33.740224, "lon": -86.55846835, "index": 130},
    {"name": "East Cullman", "state": "AL", "lat": 34.1943595, "lon": -86.7485404, "index": 131},
    {"name": "Bellefonte", "state": "AL", "lat": 34.71014805, "lon": -85.9295386, "index": 132},
    {"name": "Widows Creek", "state": "AL", "lat": 34.88741495, "lon": -85.75460495, "index": 133},
    {"name": "Raccoon Mountain", "state": "TN", "lat": 35.0575041, "lon": -85.3873998, "index": 134},
    {"name": "West Vernon", "state": "AL", "lat": 33.65152815, "lon": -88.25764375, "index": 135},
    {"name": "Caledonia", "state": "MS", "lat": 33.6495259, "lon": -88.27282635, "index": 136},
    {"name": "Lowndes", "state": "MS", "lat": 33.6474594, "lon": -88.3171499, "index": 137},
    {"name": "West Point", "state": "MS", "lat": 33.63594165, "lon": -88.65428745, "index": 138},
    {"name": "Browns Ferry", "state": "AL", "lat": 34.70489145, "lon": -87.1171402, "index": 139},
    {"name": "Trinity", "state": "AL", "lat": 34.6084975, "lon": -87.05667795, "index": 140},
    {"name": "Limestone", "state": "AL", "lat": 34.71917, "lon": -86.8471116, "index": 141},
    {"name": "Madison", "state": "AL", "lat": 34.79616355, "lon": -86.52126344, "index": 142},
    {"name": "Juniata", "state": "PA", "lat": 40.4292068, "lon": -77.1715361, "index": 143},
    {"name": "Cabot", "state": "PA", "lat": 40.8017946, "lon": -79.7969413, "index": 144},
    {"name": "Three Mile Island", "pjm": "TMI", "state": "PA", "lat": 40.14978335, "lon": -76.71462175, "index": 145},
    {"name": "Peach Bottom", "pjm": "PEACHBOTTOM", "state": "PA", "lat": 39.7570713, "lon": -76.2746859, "index": 146},
    {"name": "Hosensack", "state": "PA", "lat": 40.4568174, "lon": -75.51000955, "index": 147},
    {"name": "Alburtis", "state": "PA", "lat": 40.48143405, "lon": -75.58409215, "index": 148},
    {"name": "Sunbury", "state": "PA", "lat": 40.83600545, "lon": -76.82892685, "index": 149},
    {"name": "Susquehanna", "state": "PA", "lat": 41.08747845, "lon": -76.15022065, "index": 150},
    {"name": "Wescosville", "pjm": "WESCOSVL", "state": "PA", "lat": 40.57426115, "lon": -75.5625379, "index": 151},
    {"name": "Branchburg", "state": "NJ", "lat": 40.54360475, "lon": -74.74249005, "index": 152},
    {"name": "Whitpain", "state": "PA", "lat": 40.1710444, "lon": -75.31191235, "index": 153},
    {"name": "Limerick", "state": "PA", "lat": 40.2204777, "lon": -75.5838239, "index": 154},
    {"name": "Rock Springs", "pjm": "ROCKSPRINGS", "state": "MD", "lat": 39.7178828, "lon": -76.16319185, "index": 155},
    {"name": "Keeney", "state": "DE", "lat": 39.6334068, "lon": -75.73250415, "index": 156},
    {"name": "Red Lion", "pjm": "REDLION", "state": "DE", "lat": 39.60744045, "lon": -75.62815545, "index": 157},
    {"name": "Hope Creek", "pjm": "HOPECREEK", "state": "NJ", "lat": 39.4675079, "lon": -75.53482535, "index": 158},
    {"name": "Salem", "state": "NJ", "lat": 39.46330025, "lon": -75.53341985, "index": 159},
    {"name": "New Freedom", "pjm": "NEWFREEDOM", "state": "NJ", "lat": 39.74103575, "lon": -74.96461985, "index": 160},
    {"name": "Deans", "state": "NJ", "lat": 40.40511425, "lon": -74.48630695, "index": 161},
    {"name": "Smithburg", "state": "NJ", "lat": 40.2011865, "lon": -74.36131595, "index": 162},
    {"name": "Ramapo", "state": "NY", "lat": 41.14944765, "lon": -74.15592315, "index": 163},
    {"name": "Elroy", "state": "PA", "lat": 40.2783797, "lon": -75.3270829, "index": 164},
    {"name": "Unknown GA 1", "state": "GA", "lat": 34.3844873, "lon": -84.88322495, "index": 165},
    {"name": "Unknown GA 2", "state": "GA", "lat": 34.32747265, "lon": -84.33711915, "index": 166},
    {"name": "Unknown GA 3", "state": "GA", "lat": 34.7029113, "lon": -84.90887225, "index": 167},
    {"name": "Bradley", "state": "TN", "lat": 35.04215215, "lon": -84.9601721, "index": 168},
    {"name": "Sequoyah", "state": "TN", "lat": 35.22711915, "lon": -85.09455625, "index": 169},
    {"name": "Watts Bar", "state": "TN", "lat": 35.60035805, "lon": -84.7892189, "index": 170},
    {"name": "Volunteer", "state": "TN", "lat": 36.12186735, "lon": -83.81736875, "index": 171},
    {"name": "Phipps Bend", "state": "TN", "lat": 36.46056005, "lon": -82.80809105, "index": 172},
    {"name": "Sullivan (TN)", "state": "TN", "lat": 36.44204035, "lon": -82.2800392, "index": 173},
    {"name": "Nagel", "pjm": "NAGELAEP", "state": "TN", "lat": 36.5906631, "lon": -82.69618925, "index": 174},
    {"name": "Pocket", "state": "VA", "lat": 36.7839092, "lon": -83.04370435, "index": 175},
    {"name": "Pineville", "state": "KY", "lat": 36.79508215, "lon": -83.75610175, "index": 176},
    {"name": "Bull Run", "state": "TN", "lat": 36.0186828, "lon": -84.15908755, "index": 177},
    {"name": "Unknown (Oak Ridge)", "state": "TN", "lat": 35.94500895, "lon": -84.3893497, "index": 178},
    {"name": "Franklin", "state": "TN", "lat": 35.3348096, "lon": -86.11810865, "index": 179},
    {"name": "Maury", "state": "TN", "lat": 35.67293145, "lon": -87.0195669, "index": 180},
    {"name": "Rutherford", "state": "TN", "lat": 35.8282739, "lon": -86.60004255, "index": 181},
    {"name": "Davidson", "state": "TN", "lat": 36.0671938, "lon": -86.98512735, "index": 182},
    {"name": "Pin Hook", "state": "TN", "lat": 36.0465074, "lon": -86.6062652, "index": 183},
    {"name": "Wilson", "state": "TN", "lat": 36.20501185, "lon": -86.46589995, "index": 184},
    {"name": "Montgomery", "state": "TN", "lat": 36.59576265, "lon": -87.25255165, "index": 185},
    {"name": "Cumberland (TN)", "state": "TN", "lat": 36.39212045, "lon": -87.658335, "index": 186},
    {"name": "Johnsonville", "state": "TN", "lat": 36.02371135, "lon": -87.98223315, "index": 187},
    {"name": "Paradise", "state": "KY", "lat": 37.2592943, "lon": -86.97965025, "index": 188},
    {"name": "Marshall", "state": "KY", "lat": 37.02485865, "lon": -88.39559374, "index": 189},
    {"name": "Shawnee", "state": "KY", "lat": 37.1482831, "lon": -88.77669275, "index": 190},
    {"name": "Jackson", "state": "TN", "lat": 35.70240015, "lon": -88.79249095, "index": 191},
    {"name": "Brownsville", "state": "TN", "lat": 35.54301155, "lon": -89.19682055, "index": 192},
    {"name": "Cordova", "state": "TN", "lat": 35.1741744, "lon": -89.74579635, "index": 193},
    {"name": "Ackerman?", "state": "MS", "lat": 33.38585275, "lon": -89.21077075, "index": 194},
    {"name": "French Camp", "state": "MS", "lat": 33.2983423, "lon": -89.412961, "index": 195},
    {"name": "Wolf Creek", "state": "MS", "lat": 33.29010644, "lon": -89.42227365, "index": 196},
    {"name": "McAdams", "state": "MS", "lat": 33.0145316, "lon": -89.68209385, "index": 197},
    {"name": "Lakeover", "state": "MS", "lat": 32.3819389, "lon": -90.21600365, "index": 198},
    {"name": "Ray Braswell", "state": "MS", "lat": 32.3112622, "lon": -90.32945575, "index": 199},
    {"name": "Franklin", "state": "MS", "lat": 31.52442145, "lon": -90.64486205, "index": 200},
    {"name": "Bogalusa", "state": "MS", "lat": 30.78275425, "lon": -89.9069649, "index": 201},
    {"name": "McKnight", "state": "MS", "lat": 30.74968035, "lon": -90.88011325, "index": 202},
    {"name": "Daniel", "state": "MS", "lat": 30.53172105, "lon": -88.5535865, "index": 203},
    {"name": "Coly", "state": "MS", "lat": 30.48770764, "lon": -90.89674025, "index": 204},
    {"name": "Willow Glen", "state": "LA", "lat": 30.27875545, "lon": -91.1131704, "index": 205},
    {"name": "Waterford", "state": "LA", "lat": 29.98580415, "lon": -90.47891375, "index": 206},
    {"name": "Fancy Point", "state": "LA", "lat": 30.74526015, "lon": -91.33135465, "index": 207},
    {"name": "Big Cajun", "state": "LA", "lat": 30.72425615, "lon": -91.36912824, "index": 208},
    {"name": "Webre", "state": "LA", "lat": 30.4422892, "lon": -91.4763682, "index": 209},
    {"name": "Wells", "state": "LA", "lat": 30.448121, "lon": -92.13735045, "index": 210},
    {"name": "Richard", "state": "LA", "lat": 30.4302557, "lon": -92.40722625, "index": 211},
    {"name": "Nelson", "state": "LA", "lat": 30.2819693, "lon": -93.29610495, "index": 212},
    {"name": "Hartburg", "state": "TX", "lat": 30.26647825, "lon": -93.7384254, "index": 213},
    {"name": "Layfield", "state": "LA", "lat": 31.9805077, "lon": -93.1882936, "index": 214},
    {"name": "Mount Olive", "state": "LA", "lat": 32.57729835, "lon": -92.68796234, "index": 215},
    {"name": "El Dorado", "state": "AR", "lat": 33.28879474, "lon": -92.59317045, "index": 216},
    {"name": "Sterlington", "state": "LA", "lat": 32.7038888, "lon": -92.07493815, "index": 217},
    {"name": "Sterlington", "state": "LA", "lat": 32.6931843, "lon": -92.01782585, "index": 218},
    {"name": "Baxter Wilson", "state": "MS", "lat": 32.2811485, "lon": -90.92954635, "index": 219},
    {"name": "Grand Gulf", "state": "MS", "lat": 32.0050259, "lon": -91.04442, "index": 220},
    {"name": "Benton", "state": "MS", "lat": 34.82883255, "lon": -89.20086265, "index": 221},
    {"name": "Unknown MS 1", "state": "MS", "lat": 34.54102695, "lon": -88.93783984, "index": 222},
    {"name": "Unknown MS 2", "state": "MS", "lat": 34.37778445, "lon": -88.859337, "index": 223},
    {"name": "Freeport", "state": "TN", "lat": 34.9973897, "lon": -90.0485157, "index": 224},
    {"name": "Unknown TN", "state": "TN", "lat": 35.05076775, "lon": -90.1547581, "index": 225},
    {"name": "West Memphis", "state": "AR", "lat": 35.1177562, "lon": -90.1887577, "index": 226},
    {"name": "Keo", "state": "AR", "lat": 34.6403911, "lon": -92.04862835, "index": 227},
    {"name": "White Bluff", "state": "AR", "lat": 34.42417545, "lon": -92.1445012, "index": 228},
    {"name": "Sheridan", "state": "AR", "lat": 34.34641025, "lon": -92.4260204, "index": 229},
    {"name": "Shelby", "state": "TN", "lat": 35.3859427, "lon": -89.8036945, "index": 230},
    {"name": "Lagoon Creek", "state": "TN", "lat": 35.65704125, "lon": -89.3955158, "index": 231},
    {"name": "Weakley", "state": "TN", "lat": 36.2752507, "lon": -88.8345802, "index": 232},
    {"name": "Gleason", "state": "TN", "lat": 36.24468095, "lon": -88.6117369, "index": 233},
    {"name": "Sans Souci", "state": "AR", "lat": 35.6526638, "lon": -89.96745405, "index": 234},
    {"name": "Dell", "state": "AR", "lat": 35.8610503, "lon": -90.02118945, "index": 235},
    {"name": "New Madrid", "state": "MO", "lat": 36.515626, "lon": -89.56840575, "index": 236},
    {"name": "Independence", "state": "AR", "lat": 35.6799168, "lon": -91.4129019, "index": 237},
    {"name": "Wrightsville", "state": "AR", "lat": 34.5938422, "lon": -92.21696915, "index": 238},
    {"name": "Mabelvale", "state": "AR", "lat": 34.634265, "lon": -92.41102695, "index": 239},
    {"name": "Mayflower", "state": "AR", "lat": 34.9369266, "lon": -92.4397856, "index": 240},
    {"name": "Arkanas Nuclear One", "state": "AR", "lat": 35.31116145, "lon": -93.22767375, "index": 241},
    {"name": "Fort Smith", "state": "AR", "lat": 35.29961715, "lon": -94.4312023, "index": 242},
    {"name": "Magnet Cove", "state": "AR", "lat": 34.43078505, "lon": -92.82995585, "index": 243},
    {"name": "Unknown AR 1", "state": "AR", "lat": 34.43518405, "lon": -92.87754895, "index": 244},
    {"name": "Hot Spring", "state": "AR", "lat": 34.2980628, "lon": -92.87088095, "index": 245},
    {"name": "Unknown AR 2", "state": "AR", "lat": 33.33671215, "lon": -93.22465625, "index": 246},
    {"name": "Cypress", "state": "TX", "lat": 30.30355535, "lon": -94.2577225, "index": 247},
    {"name": "Sarepta", "state": "LA", "lat": 32.912152, "lon": -93.44970165, "index": 248},
    {"name": "Longwood", "state": "LA", "lat": 32.58546635, "lon": -93.99426785, "index": 249},
    {"name": "Southwest Shreveport", "state": "LA", "lat": 32.40474014, "lon": -93.86478425, "index": 250},
    {"name": "Dolet Hills", "state": "LA", "lat": 32.0350684, "lon": -93.56926385, "index": 251},
    {"name": "Diana", "state": "TX", "lat": 32.7443501, "lon": -94.69879565, "index": 252},
    {"name": "Pirkey", "state": "TX", "lat": 32.46350175, "lon": -94.47893235, "index": 253},
    {"name": "Harrison County Power Project", "state": "TX", "lat": 32.3955388, "lon": -94.43485824, "index": 254},
    {"name": "Unknown TX 1", "state": "TX", "lat": 32.02457895, "lon": -94.62139785, "index": 255},
    {"name": "Crockett", "state": "TX", "lat": 31.364277, "lon": -95.39566845, "index": 256},
    {"name": "Grimes", "state": "TX", "lat": 30.6239639, "lon": -95.9099123, "index": 257},
    {"name": "Tenaska Frontier", "state": "TX", "lat": 30.5938129, "lon": -95.91918735, "index": 258},
    {"name": "Welsh", "state": "TX", "lat": 33.0550278, "lon": -94.8376912, "index": 259},
    {"name": "East DC-Tie", "state": "TX", "lat": 33.05839545, "lon": -94.8441714, "index": 260},
    {"name": "Wilkes", "state": "TX", "lat": 32.84932904, "lon": -94.55095765, "index": 261},
    {"name": "Northwest Texarkana", "state": "TX", "lat": 33.4882105, "lon": -94.17644085, "index": 262},
    {"name": "Unknown TX 2", "state": "TX", "lat": 33.434288, "lon": -94.72009645, "index": 263},
    {"name": "Valliant", "state": "OK", "lat": 33.9874829, "lon": -95.05109575, "index": 264},
    {"name": "Kiowa", "state": "OK", "lat": 34.6926074, "lon": -95.922516, "index": 265},
    {"name": "Muskogee", "state": "OK", "lat": 35.7552433, "lon": -95.28784095, "index": 266},
    {"name": "Pecan Creek", "state": "OK", "lat": 35.7168594, "lon": -95.46860575, "index": 267},
    {"name": "Riverside", "state": "OK", "lat": 35.9890252, "lon": -95.94803454, "index": 268},
    {"name": "Redbud", "state": "OK", "lat": 35.68675444, "lon": -97.22706465, "index": 269},
    {"name": "Oneta", "state": "OK", "lat": 36.0117532, "lon": -95.7032132, "index": 270},
    {"name": "Clarksville", "state": "OK", "lat": 35.81539565, "lon": -95.54955484, "index": 271},
    {"name": "Chambers Springs", "state": "AR", "lat": 36.10831745, "lon": -94.43436205, "index": 272},
    {"name": "Tontitown", "state": "AR", "lat": 36.18529585, "lon": -94.2822057, "index": 273},
    {"name": "Northeastern", "state": "OK", "lat": 36.4266381, "lon": -95.70434245, "index": 274},
    {"name": "Tulsa North", "state": "OK", "lat": 36.28241965, "lon": -95.98106595, "index": 275},
    {"name": "Grand River", "state": "OK", "lat": 36.1934201, "lon": -95.28900775, "index": 276},
    {"name": "Chouteau", "state": "OK", "lat": 36.2229464, "lon": -95.25357575, "index": 277},
    {"name": "Flint Creek", "state": "AR", "lat": 36.2540362, "lon": -94.52782365, "index": 278},
    {"name": "Brookline", "state": "MO", "lat": 37.17106674, "lon": -93.37479024, "index": 279},
    {"name": "Morgan", "state": "MO", "lat": 37.48989, "lon": -93.6209339, "index": 280},
    {"name": "Brambleton", "pjm": "BRAMBLET", "state": "VA", "lat": 38.9640312, "lon": -77.5490742, "index": 281},
    {"name": "Front Royal", "state": "VA", "lat": 38.9707699, "lon": -78.1811437, "index": 282},
    {"name": "Brunswick Heritage", "pjm": "BRUNSSWY", "state": "VA", "lat": 36.7611009, "lon": -77.7115759, "index": 283},
    {"name": "Rawlings", "state": "VA", "lat": 36.936728, "lon": -77.7589954, "index": 284},
    {"name": "Rogers Rd", "pjm": "ROGERSRD", "state": "VA", "lat": 36.7213566, "lon": -77.6549276, "index": 285},
    {"name": "Matt Funk", "state": "VA", "lat": 37.237142, "lon": -80.1699957, "index": 286},
    {"name": "Kanawha River", "state": "WV", "lat": 38.2048499, "lon": -81.4197052, "index": 287},
    {"name": "Sporn", "state": "WV", "lat": 38.9617479, "lon": -81.9293374, "index": 288},
    {"name": "Kyger Creek", "state": "WV", "lat": 38.91256705, "lon": -82.13018685, "index": 289},
    {"name": "Waterford", "state": "OH", "lat": 39.53306095, "lon": -81.71558175, "index": 290},
    {"name": "Muskingum River", "state": "OH", "lat": 39.5885082, "lon": -81.68287215, "index": 291},
    {"name": "West Bellaire", "state": "OH", "lat": 40.0219132, "lon": -80.8069851, "index": 292},
    {"name": "Tidd", "state": "OH", "lat": 40.25326484, "lon": -80.6507971, "index": 293},
    {"name": "Collier", "state": "PA", "lat": 40.4043789, "lon": -80.12165325, "index": 294},
    {"name": "Clinton", "state": "PA", "lat": 40.50743755, "lon": -80.30504055, "index": 295},
    {"name": "Beaver Valley", "state": "PA", "lat": 40.62054765, "lon": -80.431745, "index": 296},
    {"name": "Crescent", "state": "PA", "lat": 40.5662746, "lon": -80.23598845, "index": 297},
    {"name": "Star", "state": "OH", "lat": 41.0107972, "lon": -81.6977467, "index": 298},
    {"name": "Sammis", "state": "OH", "lat": 40.53141235, "lon": -80.6336617, "index": 299},
    {"name": "Juniper", "state": "OH", "lat": 41.361407, "lon": -81.5715629, "index": 300},
    {"name": "Hanna", "state": "OH", "lat": 41.11960245, "lon": -81.2270712, "index": 301},
    {"name": "South East Canton", "state": "OH", "lat": 40.7732606, "lon": -81.3295067, "index": 302},
    {"name": "Canton Central", "state": "OH", "lat": 40.7801036, "lon": -81.35633874, "index": 303},
    {"name": "Mansfield", "state": "OH", "lat": 40.63388285, "lon": -80.4085231, "index": 304},
    {"name": "Chamberlin", "state": "OH", "lat": 41.30346525, "lon": -81.47428375, "index": 305},
    {"name": "Eastlake", "state": "OH", "lat": 41.671908, "lon": -81.4401116, "index": 306},
    {"name": "Highland", "state": "OH", "lat": 41.17750075, "lon": -80.8251827, "index": 307},
    {"name": "Shenango", "state": "OH", "lat": 41.13525425, "lon": -80.4480723, "index": 308},
    {"name": "Hoytdale", "state": "PA", "lat": 40.85064575, "lon": -80.33499385, "index": 309},
    {"name": "Steel City", "pjm": "STEELCITY", "state": "PA", "lat": 40.61958305, "lon": -75.30879615, "index": 310},
    {"name": "Ohio Central", "state": "OH", "lat": 40.09692555, "lon": -82.01870015, "index": 311},
    {"name": "Galion", "state": "OH", "lat": 40.6943401, "lon": -82.799837, "index": 312},
    {"name": "South Berwick", "state": "OH", "lat": 41.02086825, "lon": -83.2992953, "index": 313},
    {"name": "Fostoria Central", "state": "OH", "lat": 41.13897555, "lon": -83.4609478, "index": 314},
    {"name": "Bay Shore", "state": "OH", "lat": 41.690843, "lon": -83.4341588, "index": 315},
    {"name": "Lemoyne", "state": "OH", "lat": 41.4746143, "lon": -83.45205505, "index": 316},
    {"name": "Davis-Besse", "state": "OH", "lat": 41.5968976, "lon": -83.08974595, "index": 317},
    {"name": "Beaver", "state": "OH", "lat": 41.42773485, "lon": -82.26224775, "index": 318},
    {"name": "Avon Lake", "state": "OH", "lat": 41.50163605, "lon": -82.05457354, "index": 319},
    {"name": "Fox", "state": "OH", "lat": 41.42360594, "lon": -81.7560154, "index": 320},
    {"name": "Harding", "state": "OH", "lat": 41.4316606, "lon": -81.66015395, "index": 321},
    {"name": "Inland", "state": "OH", "lat": 41.4783073, "lon": -81.62607105, "index": 322},
    {"name": "Perry", "state": "OH", "lat": 41.79951345, "lon": -81.147601, "index": 323},
    {"name": "Monroe", "state": "MI", "lat": 41.8934904, "lon": -83.3466162, "index": 324},
    {"name": "Milan", "state": "MI", "lat": 42.1111937, "lon": -83.65366385, "index": 325},
    {"name": "Brownstown", "state": "MI", "lat": 42.11622905, "lon": -83.248414, "index": 326},
    {"name": "Enrico Fermi", "state": "MI", "lat": 41.9636077, "lon": -83.261214, "index": 327},
    {"name": "Wayne", "state": "MI", "lat": 42.310141, "lon": -83.46549705, "index": 328},
    {"name": "Wixom", "state": "MI", "lat": 42.51259965, "lon": -83.52835245, "index": 329},
    {"name": "Unknown MI 1", "state": "MI", "lat": 42.71089155, "lon": -83.45690715, "index": 330},
    {"name": "Unknown MI 2", "state": "MI", "lat": 42.7316385, "lon": -83.28362135, "index": 331},
    {"name": "Belle River", "state": "MI", "lat": 42.7721037, "lon": -82.49537365, "index": 332},
    {"name": "South Bend", "pjm": "SOUTHBEND", "state": "PA", "lat": 40.64159125, "lon": -79.3460772, "index": 333},
    {"name": "Lackawanna", "pjm": "LACKAWAN", "state": "PA", "lat": 41.49810545, "lon": -75.610551, "index": 334},
    {"name": "Hopatcong", "pjm": "HOPATCON", "state": "NJ", "lat": 40.9915269, "lon": -74.6354097, "index": 335},
    {"name": "Roseland", "state": "NJ", "lat": 40.8197304, "lon": -74.33084785, "index": 336},
    {"name": "Homer City", "state": "PA", "lat": 40.5171549, "lon": -79.19339645, "index": 337},
    {"name": "Handsome Lake", "state": "PA", "lat": 41.29149455, "lon": -79.8083866, "index": 338},
    {"name": "Wayne (PA)", "state": "PA", "lat": 41.5157129, "lon": -80.0098393, "index": 339},
    {"name": "Erie West", "state": "PA", "lat": 41.9342582, "lon": -80.3842128, "index": 340},
    {"name": "Erie South", "state": "PA", "lat": 42.069564, "lon": -80.04821494, "index": 341},
    {"name": "Ashtabula", "state": "PA", "lat": 41.9068881, "lon": -80.7683237, "index": 342},
    {"name": "Stolle Road", "state": "NY", "lat": 42.8321052, "lon": -78.5813781, "index": 343},
    {"name": "Watercure", "state": "NY", "lat": 42.1081797, "lon": -76.77139965, "index": 344},
    {"name": "Oakdale", "state": "NY", "lat": 42.1367881, "lon": -75.98243585, "index": 345},
    {"name": "Unknown NY 1", "state": "NY", "lat": 42.44416635, "lon": -76.1248461, "index": 346},
    {"name": "Unknown NY 2", "state": "NY", "lat": 42.97252675, "lon": -76.11842784, "index": 347},
    {"name": "Unknown NY 3", "state": "NY", "lat": 43.0403884, "lon": -76.38832825, "index": 348},
    {"name": "Oswego Harbor", "state": "NY", "lat": 43.4549798, "lon": -76.5320661, "index": 349},
    {"name": "Volney", "state": "NY", "lat": 43.40005334, "lon": -76.34778465, "index": 350},
    {"name": "Scriba", "state": "NY", "lat": 43.5131272, "lon": -76.40736885, "index": 351},
    {"name": "Nine Mile Point 1", "state": "NY", "lat": 43.51963395, "lon": -76.41011665, "index": 352},
    {"name": "James A. FitzPatrick", "state": "NY", "lat": 43.522321, "lon": -76.3999388, "index": 353},
    {"name": "Independence", "state": "NY", "lat": 43.4991534, "lon": -76.447356, "index": 354},
    {"name": "Clay", "state": "NY", "lat": 43.1979475, "lon": -76.1715018, "index": 355},
    {"name": "Marcy", "state": "NY", "lat": 43.17889855, "lon": -75.22271565, "index": 356},
    {"name": "Edic", "state": "NY", "lat": 43.15740515, "lon": -75.22725515, "index": 357},
    {"name": "Station 80", "state": "NY", "lat": 43.0537655, "lon": -77.6726604, "index": 358},
    {"name": "Somerset", "state": "NY", "lat": 43.35218385, "lon": -78.6088826, "index": 359},
    {"name": "Robert Moses", "state": "NY", "lat": 43.13995345, "lon": -79.0277289, "index": 360},
    {"name": "Unknown NY 4", "state": "NY", "lat": 43.04790065, "lon": -76.04353714, "index": 361},
    {"name": "Fraser", "state": "NY", "lat": 42.2555289, "lon": -74.99773495, "index": 362},
    {"name": "New Scotland", "state": "NY", "lat": 42.60927385, "lon": -73.90460725, "index": 363},
    {"name": "Coopers Corner", "state": "NY", "lat": 41.6700382, "lon": -74.76164915, "index": 364},
    {"name": "Gilboa", "state": "NY", "lat": 42.4398968, "lon": -74.44787055, "index": 365},
    {"name": "Leeds", "state": "NY", "lat": 42.2647183, "lon": -73.8472988, "index": 366},
    {"name": "Hurley Avenue", "state": "NY", "lat": 41.93683844, "lon": -74.0477679, "index": 367},
    {"name": "Roseton", "state": "NY", "lat": 41.57470474, "lon": -73.9787178, "index": 368},
    {"name": "Rock Tavern", "state": "NY", "lat": 41.4678102, "lon": -74.19695295, "index": 369},
    {"name": "Unknown NY 5", "state": "NY", "lat": 41.08659335, "lon": -74.14617935, "index": 370},
    {"name": "Unknown NY 6", "state": "NY", "lat": 41.18393324, "lon": -74.0760184, "index": 371},
    {"name": "Unknown NY 7", "state": "NY", "lat": 41.20143925, "lon": -73.99440565, "index": 372},
    {"name": "Buchanan", "state": "NY", "lat": 41.26445995, "lon": -73.94737205, "index": 373},
    {"name": "Millwood", "state": "NY", "lat": 41.1926737, "lon": -73.80054285, "index": 374},
    {"name": "Unknown NY 8", "state": "NY", "lat": 41.0771654, "lon": -73.8321781, "index": 375},
    {"name": "Sprainbrook", "state": "NY", "lat": 40.9573228, "lon": -73.85645765, "index": 376},
    {"name": "Dunwoodie", "state": "NY", "lat": 40.9394676, "lon": -73.8579066, "index": 377},
    {"name": "Unknown NY 9", "state": "NY", "lat": 41.1420542, "lon": -73.78217795, "index": 377},
    {"name": "Wood Street", "state": "NY", "lat": 41.35370135, "lon": -73.79396145, "index": 378},
    {"name": "East Fishkill", "state": "NY", "lat": 41.5680072, "lon": -73.83512705, "index": 379},
    {"name": "Pleasant Valley", "state": "NY", "lat": 41.7396153, "lon": -73.8345097, "index": 380},
    {"name": "Athens", "state": "NY", "lat": 42.2711185, "lon": -73.85033285, "index": 381},
    {"name": "Long Mountain", "state": "CT", "lat": 41.62043414, "lon": -73.4422689, "index": 382},
    {"name": "Plumtree", "state": "CT", "lat": 41.3916521, "lon": -73.402161, "index": 383},
    {"name": "Frost Bridge", "state": "CT", "lat": 41.61229365, "lon": -73.0605674, "index": 384},
    {"name": "Southington", "state": "CT", "lat": 41.5883586, "lon": -72.86668, "index": 385},
    {"name": "Beseck", "state": "CT", "lat": 41.4891851, "lon": -72.75519905, "index": 386},
    {"name": "East Devon", "state": "CT", "lat": 41.2278318, "lon": -73.0986771, "index": 387},
    {"name": "Haddam", "state": "CT", "lat": 41.4608384, "lon": -72.47738495, "index": 388},
    {"name": "Millstone", "state": "CT", "lat": 41.31467605, "lon": -72.16542835, "index": 389},
    {"name": "Scovill Rock", "state": "CT", "lat": 41.5103007, "lon": -72.5697355, "index": 390},
    {"name": "East Shore", "state": "CT", "lat": 41.28795925, "lon": -72.9044484, "index": 391},
    {"name": "Kleen", "state": "CT", "lat": 41.5541857, "lon": -72.59691315, "index": 392},
    {"name": "Manchester", "state": "CT", "lat": 41.77019205, "lon": -72.5574955, "index": 393},
    {"name": "Alps", "state": "NY", "lat": 42.5961314, "lon": -73.4969939, "index": 394},
    {"name": "Reynolds", "state": "NY", "lat": 42.6727901, "lon": -73.6874079, "index": 395},
    {"name": "Empire", "state": "NY", "lat": 42.62412974, "lon": -73.748622, "index": 396},
    {"name": "Berkshire", "state": "MA", "lat": 42.46869055, "lon": -73.09364984, "index": 397},
    {"name": "Northfield Mountain", "state": "MA", "lat": 42.61111864, "lon": -72.4685332, "index": 398},
    {"name": "Ludlow", "state": "MA", "lat": 42.1949275, "lon": -72.44683085, "index": 399},
    {"name": "Stony Brook", "state": "MA", "lat": 42.19800705, "lon": -72.50839835, "index": 400},
    {"name": "Barbour Hill", "state": "CT", "lat": 41.8545005, "lon": -72.5288734, "index": 401},
    {"name": "North Bloomfield", "state": "CT", "lat": 41.89127645, "lon": -72.7581613, "index": 402},
    {"name": "Card", "state": "CT", "lat": 41.7018506, "lon": -72.23498345, "index": 403},
    {"name": "Montville", "state": "CT", "lat": 41.4286449, "lon": -72.10423705, "index": 404},
    {"name": "Haddam Neck", "state": "CT", "lat": 41.4882, "lon": -72.4929804, "index": 405},
    {"name": "Lake Road", "state": "CT", "lat": 41.8747502, "lon": -71.89605205, "index": 406},
    {"name": "Killingly", "state": "CT", "lat": 41.88129565, "lon": -71.89128175, "index": 407},
    {"name": "Sherman Road", "state": "RI", "lat": 42.01015665, "lon": -71.67374255, "index": 408},
    {"name": "West Farnum", "state": "RI", "lat": 41.9693718, "lon": -71.53941885, "index": 409},
    {"name": "Kent County", "state": "RI", "lat": 41.683278, "lon": -71.4797196, "index": 410},
    {"name": "Vassell", "state": "OH", "lat": 40.23085945, "lon": -82.8467685, "index": 411},
    {"name": "East Windsor", "pjm": "EWINDSOR", "state": "NJ", "lat": 40.24022845, "lon": -74.5186262, "index": 412},
    {"name": "Orchard", "state": "NJ", "lat": 39.5858272, "lon": -75.2474883, "index": 413},
    {"name": "York", "pjm": "DLTAPLNT", "state": "PA", "lat": 39.7395367, "lon": -76.30500755, "index": 414},
    {"name": "Lauschtown", "pjm": "LAUSCHTO", "state": "PA", "lat": 40.2167471, "lon": -76.014922, "index": 415},
    {"name": "Breinigsville", "pjm": "BRNGSVIL", "state": "PA", "lat": 40.55140425, "lon": -75.64257235, "index": 416},
    {"name": "Sorenson", "state": "IN", "lat": 40.98253545, "lon": -85.3414804, "index": 417},
    {"name": "Cranberry", "state": "PA", "lat": 40.7229093, "lon": -80.0985, "index": 418},
    {"name": "Rhodes Lane", "pjm": "RHODESLN", "state": "PA", "lat": 40.166539, "lon": -79.72380415, "index": 419},
    {"name": "Center Point", "pjm": "CENTERPT", "state": "PA", "lat": 40.2127208, "lon": -75.3477037, "index": 420},
    {"name": "Shickshinny", "pjm": "SHICKSHI", "state": "PA", "lat": 41.11503415, "lon": -76.15849524, "index": 421},
    {"name": "Skiffes Creek", "pjm": "SKFFSCRK", "state": "VA", "lat": 37.21623955, "lon": -76.6080013, "index": 422},
    {"name": "Cheltanham", "pjm": "CHELTENH", "state": "MD", "lat": 38.70021285, "lon": -76.8279317, "index": 423},
    {"name": "Fluvanna", "state": "VA", "lat": 37.8671834, "lon": -78.3800349, "index": 424},
    {"name": "Spotsylvania", "pjm": "SPOTSLV", "state": "VA", "lat": 38.24980305, "lon": -77.7827123, "index": 425},
    {"name": "Tri-State", "state": "WV", "lat": 38.35162875, "lon": -82.53217624, "index": 426},
    {"name": "Cooper", "state": "KY", "lat": 37.04635885, "lon": -84.53805485, "index": 427},
    {"name": "West Garrard", "state": "KY", "lat": 37.63668775, "lon": -84.62633705, "index": 428},
    {"name": "E. W. Brown", "state": "KY", "lat": 37.7935495, "lon": -84.7169964, "index": 429},
    {"name": "J. K. Smith", "state": "KY", "lat": 37.88527515, "lon": -84.10548895, "index": 430},
    {"name": "North Clark", "state": "KY", "lat": 38.1119239, "lon": -84.08414395, "index": 431},
    {"name": "Avon", "state": "KY", "lat": 38.03010935, "lon": -84.3209602, "index": 432},
    {"name": "Spurlock", "state": "KY", "lat": 38.6965485, "lon": -83.81594715, "index": 433},
    {"name": "J. M. Stuart", "state": "OH", "lat": 38.63934395, "lon": -83.69272785, "index": 434},
    {"name": "Zimmer", "state": "OH", "lat": 38.86582465, "lon": -84.2252556, "index": 435},
    {"name": "Hardin", "state": "KY", "lat": 37.6684449, "lon": -85.90215524, "index": 436},
    {"name": "West Lexington", "state": "KY", "lat": 38.074246, "lon": -84.6211698, "index": 437},
    {"name": "Ghent", "state": "KY", "lat": 38.7457288, "lon": -85.0347074, "index": 438},
    {"name": "Frankfort", "state": "KY", "lat": 38.1635854, "lon": -84.96201085, "index": 439},
    {"name": "North American Stainless", "state": "KY", "lat": 38.72580455, "lon": -85.07068055, "index": 440},
    {"name": "Nucor Steel", "state": "KY", "lat": 38.7600493, "lon": -85.00133805, "index": 441},
    {"name": "Batesville", "state": "OH", "lat": 39.2668903, "lon": -85.21908585, "index": 442},
    {"name": "Trimble County", "state": "KY", "lat": 38.58237885, "lon": -85.40870595, "index": 443},
    {"name": "Unknown IN 1", "state": "IN", "lat": 38.44066465, "lon": -85.7549174, "index": 444},
    {"name": "Clifty Creek", "state": "IN", "lat": 38.7369895, "lon": -85.42312685, "index": 445},
    {"name": "Unknown KY 2", "state": "KY", "lat": 38.39135595, "lon": -85.41264475, "index": 446},
    {"name": "Unknown KY 3", "state": "KY", "lat": 38.22472585, "lon": -85.51258385, "index": 447},
    {"name": "Unknown KY 4", "state": "KY", "lat": 38.03942675, "lon": -85.70352894, "index": 448},
    {"name": "Mill Creek", "state": "KY", "lat": 38.0525324, "lon": -85.90769065, "index": 449},
    {"name": "Daviess County", "state": "KY", "lat": 37.75632405, "lon": -86.93628165, "index": 450},
    {"name": "Elmer Smith", "state": "KY", "lat": 37.7938589, "lon": -87.05845625, "index": 451},
    {"name": "Unknown KY 5", "state": "KY", "lat": 37.95393265, "lon": -86.81893635, "index": 452},
    {"name": "D. B. Wilson", "state": "KY", "lat": 37.4493849, "lon": -87.0887128, "index": 453},
    {"name": "Unknown KY 6 (Sebree / Big Rivers)", "state": "KY", "lat": 37.64244555, "lon": -87.50802665, "index": 454},
    {"name": "A. B. Brown", "state": "IN", "lat": 37.9074242, "lon": -87.72184565, "index": 455},
    {"name": "Gibson", "state": "IN", "lat": 38.3745356, "lon": -87.76398855, "index": 456},
    {"name": "Unknown IN 2", "state": "IN", "lat": 38.22794335, "lon": -85.856549, "index": 457},
    {"name": "Unknown IN 3", "state": "IN", "lat": 38.3597065, "lon": -85.72733085, "index": 458},
    {"name": "Unknown IN 4", "state": "IN", "lat": 38.32959295, "lon": -86.17188555, "index": 459},
    {"name": "Duff", "state": "IN", "lat": 38.31163565, "lon": -87.02413335, "index": 460},
    {"name": "Francisco", "state": "IN", "lat": 38.3222114, "lon": -87.42333725, "index": 461},
    {"name": "Albion", "state": "IL", "lat": 38.36386735, "lon": -88.0747191, "index": 462},
    {"name": "Petersburg", "state": "IN", "lat": 38.5274113, "lon": -87.24948715, "index": 463},
    {"name": "Unknown IN 5", "state": "IN", "lat": 38.68967974, "lon": -86.45067035, "index": 464},
    {"name": "Bedford", "state": "IN", "lat": 38.87086985, "lon": -86.51008125, "index": 465},
    {"name": "Columbus", "state": "IN", "lat": 39.1740798, "lon": -85.86982995, "index": 466},
    {"name": "Unknown IN 6", "state": "IN", "lat": 39.49176545, "lon": -85.7253662, "index": 467},
    {"name": "Gwynneville", "state": "IN", "lat": 39.613432, "lon": -85.6538907, "index": 468},
    {"name": "Greensboro", "state": "IN", "lat": 39.88193554, "lon": -85.45908455, "index": 469},
    {"name": "Sunnyside", "state": "IN", "lat": 39.8680081, "lon": -85.97097875, "index": 470},
    {"name": "Fall Creek", "state": "IN", "lat": 39.99177905, "lon": -85.59330225, "index": 471},
    {"name": "Desoto", "state": "IN", "lat": 40.2367715, "lon": -85.30563135, "index": 472},
    {"name": "Unknown IN 7", "state": "IN", "lat": 40.62059845, "lon": -85.30538325, "index": 473},
    {"name": "Tanner's Creek", "state": "IN", "lat": 39.08342565, "lon": -84.86022505, "index": 474},
    {"name": "Pierce", "state": "OH", "lat": 38.9904502, "lon": -84.29094225, "index": 475},
    {"name": "Wheatland", "state": "IN", "lat": 38.6722926, "lon": -87.29187015, "index": 476},
    {"name": "Merom", "state": "IN", "lat": 39.0656534, "lon": -87.51174155, "index": 477},
    {"name": "Crystal River", "state": "FL", "lat": 28.96041605, "lon": -82.69854025, "index": 478},
    {"name": "Central Florida", "state": "FL", "lat": 28.8160431, "lon": -81.9551955, "index": 479},
    {"name": "Kathleen", "state": "FL", "lat": 28.2268253, "lon": -82.02685, "index": 480},
    {"name": "Brookridge", "state": "FL", "lat": 28.5749288, "lon": -82.49849505, "index": 481},
    {"name": "Lake Tarpon", "state": "FL", "lat": 28.05825335, "lon": -82.65484775, "index": 482},
    {"name": "North Blacksburg", "state": "VA", "lat": 37.27697064, "lon": -80.38092355, "index": 483},
    {"name": "Mount View", "state": "VA", "lat": 37.2592743, "lon": -80.44567745, "index": 484},
    {"name": "Blacksburg", "state": "VA", "lat": 37.2326233, "lon": -80.42175685, "index": 485},
    {"name": "Prices Fork", "state": "VA", "lat": 37.2296116, "lon": -80.444679, "index": 486},
    {"name": "Lane", "state": "VA", "lat": 37.21009235, "lon": -80.4200615, "index": 487},
    {"name": "Merrimac", "state": "VA", "lat": 37.1925567, "lon": -80.41899985, "index": 488},
    {"name": "Ellett", "state": "VA", "lat": 37.20642055, "lon": -80.39007795, "index": 489},
    {"name": "Midway", "state": "VA", "lat": 37.17074015, "lon": -80.4227266, "index": 490},
    {"name": "Hans Meadow", "state": "VA", "lat": 37.1525447, "lon": -80.41159865, "index": 491},
    {"name": "Cambria", "state": "VA", "lat": 37.1424375, "lon": -80.41477505, "index": 492},
    {"name": "South Christiansburg", "state": "VA", "lat": 37.119186, "lon": -80.3979844, "index": 493},
    {"name": "Vicker", "state": "VA", "lat": 37.16520425, "lon": -80.44419085, "index": 494},
    {"name": "Edgemont", "state": "VA", "lat": 37.10222865, "lon": -80.4671351, "index": 495},
    {"name": "Falling Branch", "state": "VA", "lat": 37.13837164, "lon": -80.33112665, "index": 496},
    {"name": "Vernon VT", "state": "VT", "lat": 42.78320175, "lon": -72.51920565, "index": 497},
    {"name": "Unknown VT 1", "state": "VT", "lat": 42.96805535, "lon": -72.65278235, "index": 498},
    {"name": "Coolidge", "state": "VT", "lat": 43.42910385, "lon": -72.66047225, "index": 499},
    {"name": "West Rutland", "state": "VT", "lat": 43.6337277, "lon": -73.05782075, "index": 500},
    {"name": "New Haven", "state": "VT", "lat": 44.11916945, "lon": -73.16560195, "index": 501},
    {"name": "Fitzwilliam", "state": "NH", "lat": 42.80033955, "lon": -72.14850025, "index": 502},
    {"name": "Amherst", "state": "NH", "lat": 42.80899375, "lon": -71.5930114, "index": 503},
    {"name": "Scobie Pond", "state": "NH", "lat": 42.90458345, "lon": -71.3422765, "index": 504},
    {"name": "Deerfield", "state": "NH", "lat": 43.14175425, "lon": -71.18517415, "index": 505},
    {"name": "Buxton", "state": "ME", "lat": 43.66328145, "lon": -70.553414, "index": 506},
    {"name": "Three Rivers", "state": "ME", "lat": 43.1675558, "lon": -70.81807695, "index": 507},
    {"name": "Maguire Road", "state": "ME", "lat": 43.39684405, "lon": -70.6173827, "index": 508},
    {"name": "South Gorham", "state": "ME", "lat": 43.64415105, "lon": -70.43265625, "index": 509},
    {"name": "Surowiec", "state": "ME", "lat": 43.9317293, "lon": -70.20355065, "index": 510},
    {"name": "Unknown ME 1", "state": "ME", "lat": 43.7815901, "lon": -70.20335084, "index": 511},
    {"name": "Yarmouth", "state": "ME", "lat": 43.751248, "lon": -70.15620565, "index": 512},
    {"name": "Maine Yankee", "state": "ME", "lat": 43.9535905, "lon": -69.6955631, "index": 513},
    {"name": "Orrington", "state": "ME", "lat": 44.74021265, "lon": -68.75409565, "index": 514},
    {"name": "Chester", "state": "ME", "lat": 45.3974546, "lon": -68.52942245, "index": 515},
    {"name": "Keswick", "state": "CA", "lat": 46.05677774, "lon": -66.84997405, "index": 516},
    {"name": "Newington", "state": "NH", "lat": 43.0981174, "lon": -70.7924897, "index": 517},
    {"name": "Timber Swamp", "state": "NH", "lat": 42.9496953, "lon": -70.86900135, "index": 518},
    {"name": "Seabrook", "state": "NH", "lat": 42.90065565, "lon": -70.8539773, "index": 519},
    {"name": "West Amesbury", "state": "MA", "lat": 42.8329482, "lon": -70.97257755, "index": 520},
    {"name": "Ward Hill", "state": "MA", "lat": 42.7442422, "lon": -71.11383875, "index": 521},
    {"name": "Tewksbury", "state": "MA", "lat": 42.62277925, "lon": -71.2423793, "index": 522},
    {"name": "Sandy Pond", "state": "MA", "lat": 42.5684693, "lon": -71.53080895, "index": 523},
    {"name": "Lawrence Road", "state": "NH", "lat": 42.79143885, "lon": -71.3768504, "index": 524},
    {"name": "Wakefield Junction", "state": "MA", "lat": 42.50526365, "lon": -71.0419005, "index": 525},
    {"name": "Golden Hills", "state": "MA", "lat": 42.47181055, "lon": -71.04555245, "index": 526},
    {"name": "Mystic Power", "state": "MA", "lat": 42.39298805, "lon": -71.06704365, "index": 527},
    {"name": "Woburn", "state": "MA", "lat": 42.4624202, "lon": -71.15422345, "index": 528},
    {"name": "Lexington (MA)", "state": "MA", "lat": 42.44514365, "lon": -71.26642964, "index": 529},
    {"name": "Wachusett", "state": "MA", "lat": 42.3604124, "lon": -71.77615265, "index": 530},
    {"name": "Millbury", "state": "MA", "lat": 42.188027, "lon": -71.7374486, "index": 531},
    {"name": "Carpenter Hill", "state": "MA", "lat": 42.1285673, "lon": -71.99717435, "index": 532},
    {"name": "West Medway", "state": "MA", "lat": 42.1389813, "lon": -71.44864215, "index": 533},
    {"name": "Bellingham", "state": "MA", "lat": 42.0924435, "lon": -71.48329365, "index": 534},
    {"name": "Blackstone", "state": "MA", "lat": 42.0595227, "lon": -71.51411955, "index": 535},
    {"name": "Ocean State", "state": "RI", "lat": 42.0095107, "lon": -71.6696726, "index": 536},
    {"name": "Brayton Point", "state": "RI", "lat": 41.713885, "lon": -71.19164365, "index": 537},
    {"name": "Bellingham", "state": "MA", "lat": 42.10929735, "lon": -71.45218875, "index": 538},
    {"name": "Berry Street", "state": "MA", "lat": 42.0198496, "lon": -71.3355314, "index": 539},
    {"name": "West Walpole", "state": "MA", "lat": 42.1313932, "lon": -71.26863374, "index": 540},
    {"name": "Stoughton", "state": "MA", "lat": 42.14162005, "lon": -71.10116805, "index": 541},
    {"name": "Hyde Park", "state": "MA", "lat": 42.27353625, "lon": -71.120623, "index": 542},
    {"name": "Holbrook", "state": "MA", "lat": 42.1671574, "lon": -70.9984783, "index": 543},
    {"name": "Auburn Street", "state": "MA", "lat": 42.0778784, "lon": -70.9742962, "index": 544},
    {"name": "Bridgewater", "state": "MA", "lat": 41.97214665, "lon": -71.01717735, "index": 545},
    {"name": "Carver", "state": "MA", "lat": 41.89828075, "lon": -70.78872015, "index": 546},
    {"name": "Unknown MA 1", "state": "MA", "lat": 41.88211645, "lon": -70.6563343, "index": 547},
    {"name": "Unknown MA 2", "state": "MA", "lat": 41.90677235, "lon": -70.6292424, "index": 548},
    {"name": "Pilgrim", "state": "MA", "lat": 41.9433617, "lon": -70.57972645, "index": 549},
    {"name": "Canal", "state": "MA", "lat": 41.7691297, "lon": -70.51098544, "index": 550},
    {"name": "Seminole", "state": "OK", "lat": 34.9661076, "lon": -96.7317505, "index": 551},
    {"name": "Sunnyside (OK)", "state": "OK", "lat": 34.1854859, "lon": -97.2415258, "index": 552},
    {"name": "Unknown OK 1", "state": "OK", "lat": 34.0190392, "lon": -95.31252465, "index": 553},
    {"name": "Lawton Eastside", "state": "OK", "lat": 34.60378885, "lon": -98.314742, "index": 554},
    {"name": "Oklaunion North", "state": "TX", "lat": 34.08609745, "lon": -99.18075685, "index": 555},
    {"name": "North DC-Trie", "state": "TX", "lat": 34.0850945, "lon": -99.1834069, "index": 556},
    {"name": "Oklaunion South", "state": "TX", "lat": 34.0822533, "lon": -99.18090705, "index": 557},
    {"name": "TUCO", "state": "TX", "lat": 33.868316, "lon": -101.8424309, "index": 558},
    {"name": "Border", "state": "OK", "lat": 35.20119355, "lon": -99.9299059, "index": 559},
    {"name": "Woodward District", "state": "OK", "lat": 36.31109325, "lon": -99.3687482, "index": 560},
    {"name": "Tatonga", "state": "OK", "lat": 35.9319889, "lon": -98.7536855, "index": 561},
    {"name": "Northwest", "state": "OK", "lat": 35.63635544, "lon": -97.6454665, "index": 562},
    {"name": "Unknown OK 2", "state": "OK", "lat": 35.98161815, "lon": -98.70814595, "index": 563},
    {"name": "Unknown OK 3", "state": "OK", "lat": 36.074803, "lon": -98.75977345, "index": 564},
    {"name": "Unknown OK 4", "state": "OK", "lat": 36.1159212, "lon": -98.9976046, "index": 565},
    {"name": "Cimarron", "state": "OK", "lat": 35.51097515, "lon": -97.7924036, "index": 566},
    {"name": "Unknown OK 5", "state": "OK", "lat": 35.72809455, "lon": -97.7924086, "index": 567},
    {"name": "Unknown OK 6", "state": "OK", "lat": 35.63317735, "lon": -98.0486813, "index": 568},
    {"name": "Minco", "state": "OK", "lat": 35.30077245, "lon": -98.0269698, "index": 569},
    {"name": "Draper Lake", "state": "OK", "lat": 35.33187425, "lon": -97.3291616, "index": 570},
    {"name": "Arcadia", "state": "OK", "lat": 35.6896862, "lon": -97.31589745, "index": 571},
    {"name": "Spring Creek", "state": "OK", "lat": 35.74291565, "lon": -97.653553, "index": 572},
    {"name": "Sooner", "state": "OK", "lat": 36.4469651, "lon": -97.05701934, "index": 573},
    {"name": "Woodring", "state": "OK", "lat": 36.3307332, "lon": -97.7897613, "index": 574},
    {"name": "Wichita", "state": "KS", "lat": 37.7931097, "lon": -97.51959375, "index": 575},
    {"name": "Thistle", "state": "KS", "lat": 37.29353115, "lon": -98.4650094, "index": 576},
    {"name": "Beaver County", "state": "OK", "lat": 36.52521165, "lon": -100.9500391, "index": 577},
    {"name": "Balko Wind", "state": "OK", "lat": 36.520732, "lon": -100.8652901, "index": 578},
    {"name": "Palo Duro Wind", "state": "OK", "lat": 36.4106081, "lon": -101.0042436, "index": 579},
    {"name": "Hitchland", "state": "TX", "lat": 36.496382, "lon": -101.39174804, "index": 580},
    {"name": "Potter County Interchange", "state": "TX", "lat": 35.31024765, "lon": -101.9229086, "index": 581},
    {"name": "Spinning Spur 1", "state": "TX", "lat": 35.28312035, "lon": -102.43470155, "index": 582},
    {"name": "Finney", "state": "KS", "lat": 37.91498844, "lon": -100.9752982, "index": 583},
    {"name": "Holcomb", "state": "KS", "lat": 37.9263646, "lon": -100.9718489, "index": 584},
    {"name": "Spearville", "state": "KS", "lat": 37.8642046, "lon": -99.75602235, "index": 585},
    {"name": "Unknown KS 1", "state": "KS", "lat": 37.8536396, "lon": -99.7384525, "index": 586},
    {"name": "Unknown KS 2", "state": "KS", "lat": 37.4674359, "lon": -99.87668515, "index": 587},
    {"name": "Unknown KS 3", "state": "KS", "lat": 38.9336342, "lon": -99.362557, "index": 588},
    {"name": "Setab", "state": "KS", "lat": 38.4860599, "lon": -100.9689085, "index": 589},
    {"name": "Mingo", "state": "KS", "lat": 39.308998, "lon": -100.92035855, "index": 590},
    {"name": "Red Willow", "state": "NE", "lat": 40.3032503, "lon": -100.70997005, "index": 591},
    {"name": "Lamar HVDC Tie", "state": "CO", "lat": 38.2065676, "lon": -102.5288832, "index": 592},
    {"name": "Gentleman", "state": "NE", "lat": 41.08109345, "lon": -101.14722515, "index": 593},
    {"name": "Keystone (NE)", "state": "NE", "lat": 41.15792425, "lon": -101.65644655, "index": 594},
    {"name": "Unknown NE 1", "state": "NE", "lat": 41.191354, "lon": -103.04887844, "index": 595},
    {"name": "Unknown NE 2", "state": "NE", "lat": 41.7982786, "lon": -103.96221084, "index": 596},
    {"name": "Laramie River", "state": "WY", "lat": 42.10738805, "lon": -104.88709084, "index": 597},
    {"name": "Story", "state": "CO", "lat": 40.2544293, "lon": -103.58746805, "index": 598},
    {"name": "Ault", "state": "CO", "lat": 40.6075542, "lon": -104.81351655, "index": 599},
    {"name": "Craig Coal Plant", "state": "CO", "lat": 40.472358, "lon": -107.59207384, "index": 600},
    {"name": "Meeker", "state": "CO", "lat": 40.0084087, "lon": -107.98042615, "index": 601},
    {"name": "Unknown CO 1", "state": "CO", "lat": 39.52026965, "lon": -107.74180075, "index": 602},
    {"name": "Sweetwater", "state": "NE", "lat": 41.05249805, "lon": -99.28128475, "index": 603},
    {"name": "Axtell", "state": "NE", "lat": 40.5453878, "lon": -99.121582, "index": 604},
    {"name": "Pauline", "state": "NE", "lat": 40.40625225, "lon": -98.35578145, "index": 605},
    {"name": "Moore", "state": "NE", "lat": 40.5635395, "lon": -96.78862205, "index": 606},
    {"name": "Unknown NE 3", "state": "NE", "lat": 40.91203034, "lon": -98.26236855, "index": 607},
    {"name": "Unknown NE 4", "state": "NE", "lat": 40.72171175, "lon": -97.6195674, "index": 608},
    {"name": "Fort Thompson", "state": "SD", "lat": 44.12901195, "lon": -99.43328755, "index": 609},
    {"name": "Leland Olds", "state": "ND", "lat": 47.28235605, "lon": -101.3155277, "index": 610},
    {"name": "Antelope Valley", "state": "ND", "lat": 47.3706303, "lon": -101.84237455, "index": 611},
    {"name": "Charlie Creek", "state": "ND", "lat": 47.3420875, "lon": -103.16047645, "index": 612},
    {"name": "Belfield", "state": "ND", "lat": 46.8417672, "lon": -103.07019865, "index": 613},
    {"name": "Broadland", "state": "ND", "lat": 44.47353185, "lon": -98.39292305, "index": 614},
    {"name": "Groton", "state": "SD", "lat": 45.3740522, "lon": -98.10220645, "index": 615},
    {"name": "Watertown", "state": "SD", "lat": 44.8836219, "lon": -97.04102095, "index": 616},
    {"name": "Unknown SD 1", "state": "SD", "lat": 44.38672314, "lon": -96.53696314, "index": 617},
    {"name": "Unknown IA 1", "state": "IA", "lat": 42.6029832, "lon": -96.30626635, "index": 618},
    {"name": "Raun", "state": "IA", "lat": 42.3293616, "lon": -96.3654258, "index": 619},
    {"name": "Hoskins", "state": "NE", "lat": 42.07823125, "lon": -97.35492085, "index": 620},
    {"name": "Unknown NE 5", "state": "NE", "lat": 41.53077695, "lon": -97.3370131, "index": 621},
    {"name": "Columbus East", "state": "NE", "lat": 41.42530644, "lon": -97.28068405, "index": 622},
    {"name": "Unknown NE 6", "state": "NE", "lat": 40.8302152, "lon": -96.81280355, "index": 623},
    {"name": "Unknown NE 7", "state": "NE", "lat": 40.84003615, "lon": -96.54723665, "index": 624},
    {"name": "Unknown NE 8", "state": "NE", "lat": 40.7132763, "lon": -96.58290335, "index": 625},
    {"name": "Cooper (NE)", "state": "NE", "lat": 40.3604628, "lon": -95.645303, "index": 626},
    {"name": "Nebraska City", "state": "NE", "lat": 40.61817974, "lon": -95.78066, "index": 627},
    {"name": "Unknown NE 9", "state": "NE", "lat": 40.94820375, "lon": -95.9667255, "index": 628},
    {"name": "Unknown NE 10", "state": "NE", "lat": 41.16918615, "lon": -96.0881008, "index": 629},
    {"name": "Unknown NE 11", "state": "NE", "lat": 41.1682921, "lon": -96.19866615, "index": 630},
    {"name": "Fort Calhoun", "state": "NE", "lat": 41.51862245, "lon": -96.08084815, "index": 631},
    {"name": "Unknown NE 12", "state": "NE", "lat": 41.16975904, "lon": -95.97031365, "index": 632},
    {"name": "Blondo Street", "state": "NE", "lat": 41.27913635, "lon": -96.07992075, "index": 633},
    {"name": "Council Bluffs", "state": "IA", "lat": 41.1763837, "lon": -95.8346294, "index": 634},
    {"name": "Unknown IA 2", "state": "IA", "lat": 41.1756363, "lon": -95.79746535, "index": 635},
    {"name": "Rolling Hills", "state": "IA", "lat": 41.17868475, "lon": -94.77489065, "index": 636},
    {"name": "Madison County", "state": "IA", "lat": 41.3362542, "lon": -93.90871685, "index": 637},
    {"name": "Grimes", "state": "IA", "lat": 41.6601353, "lon": -93.81205605, "index": 638},
    {"name": "Booneville", "state": "IA", "lat": 41.5084618, "lon": -93.92074185, "index": 639},
    {"name": "Atchison", "state": "IA", "lat": 40.52537795, "lon": -95.39456805, "index": 640},
    {"name": "Norwalk", "state": "IA", "lat": 41.4588009, "lon": -93.6805091, "index": 641},
    {"name": "SE Polk", "state": "IA", "lat": 41.54170905, "lon": -93.5272745, "index": 642},
    {"name": "Greater Des Moines Energy Center", "state": "IA", "lat": 41.55633445, "lon": -93.52602195, "index": 643},
    {"name": "Bondurant", "state": "IA", "lat": 41.67496035, "lon": -93.49783255, "index": 644},
    {"name": "Sycamore", "state": "IA", "lat": 41.6716972, "lon": -93.67736955, "index": 645},
    {"name": "Lehigh", "state": "IA", "lat": 42.3712824, "lon": -94.1164539, "index": 646},
    {"name": "Webster", "state": "IA", "lat": 42.56612, "lon": -94.0921826, "index": 647},
    {"name": "Unknown MN 1", "state": "MN", "lat": 43.6700315, "lon": -95.14371985, "index": 648},
    {"name": "Lakefield Junction", "state": "MN", "lat": 43.79970725, "lon": -94.84140535, "index": 649},
    {"name": "Unknown MN 2", "state": "MN", "lat": 43.98417505, "lon": -94.40788225, "index": 650},
    {"name": "Wilmarth", "state": "MN", "lat": 44.1985344, "lon": -94.00839975, "index": 651},
    {"name": "Blue Lake", "state": "MN", "lat": 44.78675285, "lon": -93.4269344, "index": 652},
    {"name": "Eden Prairie", "state": "MN", "lat": 44.8628537, "lon": -93.4352469, "index": 653},
    {"name": "Parkers Lake", "state": "MN", "lat": 44.9928843, "lon": -93.45711595, "index": 654},
    {"name": "Dickinson", "state": "MN", "lat": 45.1106239, "lon": -93.81016775, "index": 655},
    {"name": "Unknown MN 3", "state": "MN", "lat": 45.13723295, "lon": -93.28446885, "index": 656},
    {"name": "Unknown MN 4", "state": "MN", "lat": 45.13923, "lon": -93.46402265, "index": 657},
    {"name": "Monticello", "state": "MN", "lat": 45.33090435, "lon": -93.84632865, "index": 658},
    {"name": "Sherburne County", "state": "MN", "lat": 45.37486, "lon": -93.89752665, "index": 659},
    {"name": "Benton", "state": "MN", "lat": 45.5690902, "lon": -94.03892465, "index": 660},
    {"name": "Bunker Lake", "state": "MN", "lat": 45.2207825, "lon": -93.3070266, "index": 661},
    {"name": "Terminal", "state": "MN", "lat": 44.99329845, "lon": -93.2070781, "index": 662},
    {"name": "Kohlman Lake", "state": "MN", "lat": 45.03442335, "lon": -93.03877185, "index": 663},
    {"name": "Chisago", "state": "MN", "lat": 45.4613092, "lon": -92.91321295, "index": 664},
    {"name": "King Plant", "state": "MN", "lat": 45.0301231, "lon": -92.7811004, "index": 665},
    {"name": "Maxwell", "state": "MN", "lat": 44.8873764, "lon": -93.01182165, "index": 666},
    {"name": "Inver Hills", "state": "MN", "lat": 44.7828921, "lon": -93.04184695, "index": 667},
    {"name": "Unknown MN 5", "state": "MN", "lat": 44.6383145, "lon": -92.99674565, "index": 668},
    {"name": "Prairie Island", "state": "MN", "lat": 44.62500805, "lon": -92.63423635, "index": 669},
    {"name": "Pine Island", "state": "MN", "lat": 44.2231297, "lon": -92.65897235, "index": 670},
    {"name": "Byron", "state": "MN", "lat": 44.0345758, "lon": -92.6696898, "index": 671},
    {"name": "Unknown MN 6", "state": "MN", "lat": 43.8002314, "lon": -92.68264755, "index": 672},
    {"name": "Adams", "state": "MN", "lat": 43.55712605, "lon": -92.679847, "index": 673},
    {"name": "Pioneer Prairie", "state": "IA", "lat": 43.48156545, "lon": -92.61214365, "index": 674},
    {"name": "Hazelton", "state": "IA", "lat": 42.58603815, "lon": -91.90128725, "index": 675},
    {"name": "Arnold", "state": "IA", "lat": 42.100021, "lon": -91.78114035, "index": 676},
    {"name": "Tiffin", "state": "IA", "lat": 41.7071947, "lon": -91.68237205, "index": 677},
    {"name": "Hills", "state": "IA", "lat": 41.5707015, "lon": -91.5361095, "index": 678},
    {"name": "Montezuma", "state": "IA", "lat": 41.6105137, "lon": -92.5635367, "index": 679},
    {"name": "Ottumwa", "state": "IA", "lat": 41.09291385, "lon": -92.55479805, "index": 680},
    {"name": "Sub T", "state": "IA", "lat": 41.33475174, "lon": -91.55514945, "index": 681},
    {"name": "Montgomery (MO)", "state": "MO", "lat": 38.9215382, "lon": -91.46024355, "index": 682},
    {"name": "Unknown WI 1", "state": "WI", "lat": 44.8389315, "lon": -91.5009531, "index": 683},
    {"name": "Arpin", "state": "WI", "lat": 44.5579981, "lon": -89.9445326, "index": 684},
    {"name": "Rocky Run", "state": "WI", "lat": 44.5000498, "lon": -89.6053914, "index": 685},
    {"name": "Gardner Park", "state": "WI", "lat": 44.84729534, "lon": -89.65634395, "index": 686},
    {"name": "Stone Lake", "state": "WI", "lat": 45.8984306, "lon": -91.5210223, "index": 687},
    {"name": "Arrowhead", "state": "MN", "lat": 46.771964, "lon": -92.2940565, "index": 688},
    {"name": "Highway 22", "state": "WI", "lat": 44.719955, "lon": -88.67479765, "index": 689},
    {"name": "Morgan (WI)", "state": "WI", "lat": 44.8384503, "lon": -88.19430235, "index": 690},
    {"name": "Plains", "state": "MI", "lat": 45.802065, "lon": -87.97321895, "index": 691},
    {"name": "Dead River", "state": "MI", "lat": 46.57710785, "lon": -87.4072517, "index": 692},
    {"name": "Werner West", "state": "WI", "lat": 44.42011335, "lon": -88.71916135, "index": 693},
    {"name": "North Appleton", "state": "WI", "lat": 44.3675424, "lon": -88.3545439, "index": 694},
    {"name": "Kewaunee", "state": "WI", "lat": 44.3426791, "lon": -87.53944805, "index": 695},
    {"name": "Fox River", "state": "WI", "lat": 44.32163585, "lon": -88.20765775, "index": 696},
    {"name": "Point Beach", "state": "WI", "lat": 44.28051435, "lon": -87.53848785, "index": 697},
    {"name": "Forest Junction", "state": "WI", "lat": 44.2207241, "lon": -88.13187965, "index": 698},
    {"name": "Sheboygan Falls", "state": "WI", "lat": 43.7518702, "lon": -87.8763171, "index": 699},
    {"name": "Fitzgerald", "state": "WI", "lat": 43.9798356, "lon": -88.63291225, "index": 700},
    {"name": "South Fond du Lac", "state": "WI", "lat": 43.73489215, "lon": -88.49447035, "index": 701},
    {"name": "Cypress (WI)", "state": "WI", "lat": 43.88762335, "lon": -88.2741695, "index": 702},
    {"name": "Columbia", "state": "WI", "lat": 43.48629285, "lon": -89.41708795, "index": 703},
    {"name": "North Madison", "state": "WI", "lat": 43.25648535, "lon": -89.41658265, "index": 704},
    {"name": "Rockdale", "state": "WI", "lat": 42.97704365, "lon": -89.04278264, "index": 705},
    {"name": "Wempletown", "state": "IL", "lat": 42.3424158, "lon": -89.19284355, "index": 706},
    {"name": "Unknown WI 2", "state": "WI", "lat": 42.53626775, "lon": -89.11192765, "index": 707},
    {"name": "Byron", "state": "IL", "lat": 42.0741928, "lon": -89.28674765, "index": 708},
    {"name": "Lee County Energy", "state": "IL", "lat": 41.8277269, "lon": -89.40731865, "index": 709},
    {"name": "Nelson (IL)", "state": "IL", "lat": 41.76063805, "lon": -89.60926585, "index": 710},
    {"name": "Unknown IL 1", "state": "IL", "lat": 41.77351085, "lon": -89.60692395, "index": 711},
    {"name": "Unknown IL 2", "state": "IL", "lat": 41.78720674, "lon": -89.71060274, "index": 712},
    {"name": "Quad Cities", "state": "IL", "lat": 41.72665335, "lon": -90.3063076, "index": 713},
    {"name": "Rock Creek", "state": "IL", "lat": 41.79100325, "lon": -90.29548355, "index": 714},
    {"name": "Unknown IA 3", "state": "IA", "lat": 42.4021402, "lon": -90.66384875, "index": 715},
    {"name": "Sub 91", "state": "IA", "lat": 41.6812062, "lon": -90.527617, "index": 716},
    {"name": "Unknown IA 4", "state": "IA", "lat": 41.5746748, "lon": -90.6903731, "index": 717},
    {"name": "Sub 92", "state": "IA", "lat": 41.55488155, "lon": -91.22370925, "index": 718},
    {"name": "Louisa", "state": "IA", "lat": 41.3131604, "lon": -91.09378405, "index": 719},
    {"name": "Oak Grove", "state": "IL", "lat": 41.39758355, "lon": -90.58588095, "index": 720},
    {"name": "Sub 39", "state": "IL", "lat": 41.52577805, "lon": -90.35404155, "index": 721},
    {"name": "Unknown IL 3", "state": "IL", "lat": 41.71389255, "lon": -90.27985295, "index": 722},
    {"name": "Unknown IL 4", "state": "IL", "lat": 41.7151742, "lon": -90.27893195, "index": 723},
    {"name": "Electric Junction", "state": "IL", "lat": 41.7977955, "lon": -88.2335631, "index": 724},
    {"name": "Cherry Valley", "state": "IL", "lat": 42.2165475, "lon": -88.97585145, "index": 725},
    {"name": "Silver Lake", "state": "IL", "lat": 42.254841, "lon": -88.25128485, "index": 726},
    {"name": "Pleasant Valley", "state": "IL", "lat": 42.2566536, "lon": -88.43983075, "index": 727},
    {"name": "Libertyville", "state": "IL", "lat": 42.3137853, "lon": -87.9754807, "index": 728},
    {"name": "Unknown IL 5", "state": "IL", "lat": 42.46917525, "lon": -87.8955301, "index": 729},
    {"name": "Zion", "state": "IL", "lat": 42.4466199, "lon": -87.805443, "index": 730},
    {"name": "Calpine Zion", "state": "IL", "lat": 42.4778682, "lon": -87.89636825, "index": 731},
    {"name": "Pleasant Prairie", "state": "WI", "lat": 42.5382206, "lon": -87.90824245, "index": 732},
    {"name": "Unknown WI 3", "state": "WI", "lat": 42.5528654, "lon": -87.9009696, "index": 733},
    {"name": "Raccine", "state": "WI", "lat": 42.7059929, "lon": -87.8680294, "index": 734},
    {"name": "Oak Creek", "state": "WI", "lat": 42.84251385, "lon": -87.83460375, "index": 735},
    {"name": "Arcadian", "state": "WI", "lat": 43.00858644, "lon": -88.1733456, "index": 736},
    {"name": "Granville", "state": "WI", "lat": 43.1302476, "lon": -88.0081289, "index": 737},
    {"name": "Saukville", "state": "WI", "lat": 43.3721778, "lon": -87.95895225, "index": 738},
    {"name": "Edgewater", "state": "WI", "lat": 43.7150503, "lon": -87.7079507, "index": 739},
    {"name": "Northbrook", "state": "IL", "lat": 42.12672025, "lon": -87.7857798, "index": 740},
    {"name": "Skokie", "state": "IL", "lat": 42.05019765, "lon": -87.75657724, "index": 741},
    {"name": "Golf Mill", "state": "IL", "lat": 42.0559093, "lon": -87.83285625, "index": 742},
    {"name": "Des Plaines", "state": "IL", "lat": 42.05149795, "lon": -87.89719845, "index": 743},
    {"name": "Prospect Heights", "state": "IL", "lat": 42.1152161, "lon": -87.92002165, "index": 744},
    {"name": "Lombard", "state": "IL", "lat": 41.8953831, "lon": -88.0468553, "index": 745},
    {"name": "Itasca", "state": "IL", "lat": 41.9802307, "lon": -87.99581955, "index": 746},
    {"name": "Elmhurst", "state": "IL", "lat": 41.92274465, "lon": -87.9226726, "index": 747},
    {"name": "Wayne (IL)", "state": "IL", "lat": 41.9827666, "lon": -88.24061105, "index": 748},
    {"name": "Unknown IL 6", "state": "IL", "lat": 41.81359505, "lon": -88.2261794, "index": 749},
    {"name": "Fermilab Kautz Road", "state": "IL", "lat": 41.82337465, "lon": -88.25980125, "index": 750},
    {"name": "Fermilab Master", "state": "IL", "lat": 41.8445843, "lon": -88.25549965, "index": 751},
    {"name": "Wolfs Crossing", "state": "IL", "lat": 41.70752245, "lon": -88.23253055, "index": 752},
    {"name": "Dresden", "state": "IL", "lat": 41.39098054, "lon": -88.2747894, "index": 753},
    {"name": "LaSalle", "state": "IL", "lat": 41.2444212, "lon": -88.66506555, "index": 754},
    {"name": "Braidwood", "state": "IL", "lat": 41.2449039, "lon": -88.22549545, "index": 755},
    {"name": "East Frankfort", "state": "IL", "lat": 41.4945563, "lon": -87.82557675, "index": 756},
    {"name": "Pontiac Midpoint", "state": "IL", "lat": 40.84180865, "lon": -88.59894075, "index": 757},
    {"name": "Cilco", "state": "IL", "lat": 40.5620367, "lon": -89.5375703, "index": 758},
    {"name": "Powerton", "state": "IL", "lat": 40.54059865, "lon": -89.6863113, "index": 759},
    {"name": "Elwood", "state": "IL", "lat": 41.4386723, "lon": -88.11579045, "index": 760},
    {"name": "Goodings Grove", "state": "IL", "lat": 41.62467545, "lon": -87.93273905, "index": 761},
    {"name": "Lockport", "state": "IL", "lat": 41.6301819, "lon": -88.09532785, "index": 762},
    {"name": "Joliet 29", "state": "IL", "lat": 41.4954292, "lon": -88.12576955, "index": 763},
    {"name": "Lisle", "state": "IL", "lat": 41.7996328, "lon": -88.0587814, "index": 764},
    {"name": "McCook", "state": "IL", "lat": 41.8022002, "lon": -87.82330625, "index": 765},
    {"name": "Crawford", "state": "IL", "lat": 41.82900524, "lon": -87.72688885, "index": 766},
    {"name": "Fisk", "state": "IL", "lat": 41.8502205, "lon": -87.6551579, "index": 767},
    {"name": "West Loop", "state": "IL", "lat": 41.90110045, "lon": -87.65391035, "index": 768},
    {"name": "Taylor", "state": "IL", "lat": 41.87083265, "lon": -87.63671305, "index": 769},
    {"name": "Blue Island", "state": "IL", "lat": 41.6367403, "lon": -87.6665727, "index": 770},
    {"name": "Burnham", "state": "IL", "lat": 41.63343564, "lon": -87.5456547, "index": 771},
    {"name": "Calumet", "state": "IL", "lat": 41.71471144, "lon": -87.54688715, "index": 772},
    {"name": "Unknown IL 7", "state": "IL", "lat": 41.7041951, "lon": -87.51649775, "index": 773},
    {"name": "Sheffield", "state": "IL", "lat": 41.65894455, "lon": -87.51051105, "index": 774},
    {"name": "Unknown IL 8", "state": "IL", "lat": 41.48796435, "lon": -87.60413355, "index": 775},
    {"name": "Davis Creek", "state": "IL", "lat": 41.2097708, "lon": -87.91108285, "index": 776},
    {"name": "Lanesville", "state": "IL", "lat": 39.8511675, "lon": -89.33536434, "index": 777},
    {"name": "Kincaid", "state": "IL", "lat": 39.59341974, "lon": -89.49645485, "index": 778},
    {"name": "Brokaw", "state": "IL", "lat": 40.4527044, "lon": -88.9045, "index": 779},
    {"name": "Clinton", "state": "IL", "lat": 40.174148, "lon": -88.8315674, "index": 780},
    {"name": "Unknown IL 9", "state": "IL", "lat": 39.91698355, "lon": -88.890942, "index": 781},
    {"name": "Blue Mound", "state": "IL", "lat": 40.4788262, "lon": -88.79747655, "index": 782},
    {"name": "Pawnee", "state": "IL", "lat": 39.591314, "lon": -89.594363, "index": 783},
    {"name": "Pana", "state": "IL", "lat": 39.4082961, "lon": -89.08005225, "index": 784},
    {"name": "Coffeen", "state": "IL", "lat": 39.0607568, "lon": -89.40231665, "index": 785},
    {"name": "Roxford", "state": "IL", "lat": 38.825027, "lon": -90.0973072, "index": 786},
    {"name": "Unknown MO 1", "state": "MO", "lat": 38.91461495, "lon": -90.29407135, "index": 787},
    {"name": "Unknown MO 2", "state": "MO", "lat": 38.82647715, "lon": -90.68077885, "index": 788},
    {"name": "Overton", "state": "MO", "lat": 38.92442935, "lon": -92.57493745, "index": 789},
    {"name": "Sibley", "state": "MO", "lat": 39.16910545, "lon": -94.16434075, "index": 790},
    {"name": "Hawthorn", "state": "MO", "lat": 39.130326, "lon": -94.48055575, "index": 791},
    {"name": "Saint Joseph", "state": "MO", "lat": 39.8439845, "lon": -94.79468535, "index": 792},
    {"name": "Fairport", "state": "MO", "lat": 40.00643945, "lon": -94.34238175, "index": 793},
    {"name": "Iatan", "state": "MO", "lat": 39.44992555, "lon": -94.97690525, "index": 794},
    {"name": "Stranger Creek", "state": "KS", "lat": 39.26219495, "lon": -95.03295935, "index": 795},
    {"name": "Craig", "state": "KS", "lat": 38.93253774, "lon": -94.8100973, "index": 796},
    {"name": "West Gardner", "state": "KS", "lat": 38.7878807, "lon": -94.98868545, "index": 797},
    {"name": "Hoyt", "state": "KS", "lat": 39.27544005, "lon": -95.67923765, "index": 798},
    {"name": "Jeffrey", "state": "KS", "lat": 39.2825418, "lon": -96.11711765, "index": 799},
    {"name": "Summit", "state": "KS", "lat": 38.72783345, "lon": -97.5409133, "index": 800},
    {"name": "Reno", "state": "KS", "lat": 38.1133877, "lon": -97.79082075, "index": 801},
    {"name": "Morris", "state": "KS", "lat": 38.6458163, "lon": -96.46301665, "index": 802},
    {"name": "Lang", "state": "KS", "lat": 38.4451343, "lon": -96.06530945, "index": 803},
    {"name": "Swissvale", "state": "KS", "lat": 38.8422057, "lon": -95.59052225, "index": 804},
    {"name": "Benton", "state": "KS", "lat": 37.7911871, "lon": -97.1689164, "index": 805},
    {"name": "Wolf Creek (KS)", "state": "KS", "lat": 38.2431397, "lon": -95.6875632, "index": 806},
    {"name": "La Cygne", "state": "KS", "lat": 38.3478235, "lon": -94.641153, "index": 807},
    {"name": "Stilwell", "state": "KS", "lat": 38.7832308, "lon": -94.6534402, "index": 808},
    {"name": "Unknown KS 4", "state": "KS", "lat": 38.74901855, "lon": -94.49504505, "index": 809},
    {"name": "Pleasant Hill", "state": "KS", "lat": 38.796382, "lon": -94.30062245, "index": 810},
    {"name": "Rose Hill", "state": "KS", "lat": 37.5894009, "lon": -97.10525955, "index": 811},
    {"name": "Latham", "state": "KS", "lat": 37.500202, "lon": -96.561212, "index": 812},
    {"name": "Elk River Wind Farm", "state": "KS", "lat": 37.5496426, "lon": -96.5447553, "index": 813},
    {"name": "Neosho", "state": "KS", "lat": 37.3044533, "lon": -95.1171177, "index": 814},
    {"name": "Delaware", "state": "KS", "lat": 36.81307305, "lon": -95.62825455, "index": 815},
    {"name": "Huben", "state": "MO", "lat": 37.58247395, "lon": -92.7628798, "index": 816},
    {"name": "Franks", "state": "MO", "lat": 37.951639, "lon": -92.03026795, "index": 817},
    {"name": "Loose Creek", "state": "MO", "lat": 38.47302254, "lon": -91.8829144, "index": 818},
    {"name": "Mariosa Delta", "state": "MO", "lat": 38.55001, "lon": -92.03588615, "index": 819},
    {"name": "Callaway", "state": "MO", "lat": 38.75892485, "lon": -91.78451185, "index": 820},
    {"name": "Bland", "state": "MO", "lat": 38.385422, "lon": -91.49414665, "index": 821},
    {"name": "Labadie", "state": "MO", "lat": 38.5634778, "lon": -90.83479165, "index": 822},
    {"name": "Unknown MO 3", "state": "MO", "lat": 38.60681405, "lon": -90.6477005, "index": 823},
    {"name": "Mason", "state": "MO", "lat": 38.6865184, "lon": -90.47393495, "index": 824},
    {"name": "Gray Summit", "state": "MO", "lat": 38.49991305, "lon": -90.87994055, "index": 825},
    {"name": "Unknown MO 4", "state": "MO", "lat": 38.49522845, "lon": -90.5090303, "index": 826},
    {"name": "Unknown MO 5", "state": "MO", "lat": 38.21378595, "lon": -90.4514634, "index": 827},
    {"name": "Rush Island", "state": "MO", "lat": 38.13276305, "lon": -90.26571875, "index": 828},
    {"name": "Unknown MO 6", "state": "MO", "lat": 37.6911894, "lon": -91.51728205, "index": 829},
    {"name": "Unknown MO 7", "state": "MO", "lat": 37.46880445, "lon": -91.08818765, "index": 830},
    {"name": "Unknown MO 8", "state": "MO", "lat": 36.66280084, "lon": -90.5630768, "index": 831},
    {"name": "Lutesville", "state": "MO", "lat": 37.25828595, "lon": -89.8356814, "index": 832},
    {"name": "Unknown MO 9", "state": "MO", "lat": 37.9468588, "lon": -90.45507635, "index": 833},
    {"name": "Baldwin", "state": "IL", "lat": 38.20419015, "lon": -89.85200175, "index": 834},
    {"name": "Cahokia", "state": "IL", "lat": 38.6002983, "lon": -90.1788745, "index": 835},
    {"name": "Stallings", "state": "IL", "lat": 38.73567555, "lon": -90.04323925, "index": 836},
    {"name": "Prairie State", "state": "IL", "lat": 38.2738714, "lon": -89.66686225, "index": 837},
    {"name": "Turkey Hill", "state": "IL", "lat": 38.48123975, "lon": -89.95575495, "index": 838},
    {"name": "West Mount Vernon", "state": "IL", "lat": 38.3330741, "lon": -88.96890185, "index": 839},
    {"name": "Joppa", "state": "IL", "lat": 37.21521805, "lon": -88.85925715, "index": 840},
    {"name": "West Frankfort East", "state": "IL", "lat": 37.8785271, "lon": -88.84930755, "index": 841},
    {"name": "Norris City North", "state": "IL", "lat": 38.0313366, "lon": -88.277423, "index": 842},
    {"name": "Raccoon Creek", "state": "IL", "lat": 38.69899375, "lon": -88.53779345, "index": 843},
    {"name": "Newton", "state": "IL", "lat": 38.93885105, "lon": -88.2748776, "index": 844},
    {"name": "Casey West", "state": "IL", "lat": 39.2675901, "lon": -88.0828301, "index": 845},
    {"name": "Holland", "state": "IL", "lat": 39.22145235, "lon": -88.7591008, "index": 846},
    {"name": "Ramsay", "state": "IL", "lat": 39.1854864, "lon": -89.0283433, "index": 847},
    {"name": "Breed", "state": "IL", "lat": 39.2273627, "lon": -87.57021165, "index": 848},
    {"name": "Edwardsport", "state": "IN", "lat": 38.7954047, "lon": -87.25034215, "index": 849},
    {"name": "Amo", "state": "IN", "lat": 39.70902365, "lon": -86.62840495, "index": 850},
    {"name": "Qualitech", "state": "IN", "lat": 39.87826125, "lon": -86.48341445, "index": 851},
    {"name": "Whitestown", "state": "IN", "lat": 39.9823873, "lon": -86.3064567, "index": 852},
    {"name": "Kansas West", "state": "IL", "lat": 39.5442324, "lon": -87.97132935, "index": 853},
    {"name": "Sidney", "state": "IL", "lat": 40.0235835, "lon": -88.0552174, "index": 854},
    {"name": "Latham (IL)", "state": "IL", "lat": 39.9707877, "lon": -89.194076, "index": 855},
    {"name": "Goose Creek Energy Center", "state": "IL", "lat": 40.1071392, "lon": -88.60134934, "index": 856},
    {"name": "Rising", "state": "IL", "lat": 40.1579677, "lon": -88.3398407, "index": 857},
    {"name": "Unknown IL 13", "state": "IL", "lat": 40.11186664, "lon": -88.33880405, "index": 858},
    {"name": "Bunsenville", "state": "IL", "lat": 39.99246465, "lon": -87.6987086, "index": 859},
    {"name": "Eugene", "state": "IN", "lat": 39.94255325, "lon": -87.5012018, "index": 860},
    {"name": "Unknown IN 8", "state": "IN", "lat": 39.3949075, "lon": -87.5090801, "index": 861},
    {"name": "Dequine", "state": "IN", "lat": 40.4689285, "lon": -87.01425815, "index": 862},
    {"name": "Unknown IN 9", "state": "IN", "lat": 39.9249516, "lon": -87.44660075, "index": 863},
    {"name": "Cayuga", "state": "IN", "lat": 39.9253435, "lon": -87.42683415, "index": 864},
    {"name": "Unknown IN 10", "state": "IN", "lat": 39.9200374, "lon": -87.43862385, "index": 865},
    {"name": "Sugar Creek", "state": "IN", "lat": 39.394264, "lon": -87.51415885, "index": 866},
    {"name": "Unknown IN 12", "state": "IN", "lat": 39.3926555, "lon": -87.51342525, "index": 867},
    {"name": "Dresser", "state": "IN", "lat": 39.4039827, "lon": -87.4962417, "index": 868},
    {"name": "Nucor", "state": "IN", "lat": 39.97178975, "lon": -86.83183575, "index": 869},
    {"name": "Hortonville", "state": "IN", "lat": 40.09402085, "lon": -86.16634885, "index": 870},
    {"name": "Noblesville", "state": "IN", "lat": 40.09836735, "lon": -85.97282175, "index": 871},
    {"name": "Guion", "state": "IN", "lat": 39.85586815, "lon": -86.22837225, "index": 872},
    {"name": "Rockville", "state": "IN", "lat": 39.78415825, "lon": -86.30466495, "index": 873},
    {"name": "Thompson", "state": "IN", "lat": 39.692407, "lon": -86.32402785, "index": 874},
    {"name": "Unknown IN 14", "state": "IN", "lat": 39.6043447, "lon": -86.17246525, "index": 875},
    {"name": "Hanna (IN)", "state": "IN", "lat": 39.71395814, "lon": -86.052481, "index": 876},
    {"name": "Harding Street", "state": "IN", "lat": 39.7106001, "lon": -86.19437795, "index": 877},
    {"name": "Worthington", "state": "IN", "lat": 39.07194975, "lon": -87.01353665, "index": 878},
    {"name": "Bloomington", "state": "IN", "lat": 39.29615255, "lon": -86.52023275, "index": 879},
    {"name": "Westwood", "state": "IN", "lat": 40.4431815, "lon": -86.99683855, "index": 880},
    {"name": "Meadow Lake", "state": "IN", "lat": 40.65290135, "lon": -86.93373825, "index": 881},
    {"name": "Reynolds", "pjm": "REYNOLD2", "state": "IN", "lat": 40.7712519, "lon": -86.870938, "index": 882},
    {"name": "Olive", "state": "IN", "lat": 41.7064017, "lon": -86.48392775, "index": 883},
    {"name": "Unknown IN 15", "state": "IN", "lat": 41.06390065, "lon": -85.467242, "index": 884},
    {"name": "Steel Dynamics", "state": "IN", "lat": 41.11931655, "lon": -85.34734165, "index": 885},
    {"name": "Twin Branch", "state": "IN", "lat": 41.66870335, "lon": -86.1372851, "index": 886},
    {"name": "Unknown IN 16", "state": "IN", "lat": 41.62315265, "lon": -86.25637585, "index": 887},
    {"name": "Green Acres", "state": "IN", "lat": 41.46247735, "lon": -87.27292635, "index": 888},
    {"name": "University Park North", "state": "IN", "lat": 41.4420533, "lon": -87.75138815, "index": 889},
    {"name": "Fowler Ridge Wind Farm", "state": "IN", "lat": 40.577833, "lon": -87.3341531, "index": 890},
    {"name": "Glenwillow", "state": "OH", "lat": 41.3641354, "lon": -81.4665533, "index": 891},
    {"name": "Leroy Center", "state": "OH", "lat": 41.6879601, "lon": -81.1411536, "index": 892},
    {"name": "Hiple", "state": "IN", "lat": 41.557897, "lon": -85.5966275, "index": 893},
    {"name": "Collingwood", "state": "IN", "lat": 41.26354635, "lon": -85.09256765, "index": 894},
    {"name": "East Elkhart", "state": "IN", "lat": 41.706506, "lon": -85.8630138, "index": 895},
    {"name": "Leesburg", "state": "IN", "lat": 41.3366207, "lon": -85.90101, "index": 896},
    {"name": "Deedsville", "state": "IN", "lat": 40.926466, "lon": -86.1003933, "index": 897},
    {"name": "Walton", "state": "IN", "lat": 40.6777145, "lon": -86.2604085, "index": 898},
    {"name": "Burr Oak", "state": "IN", "lat": 41.2577635, "lon": -86.4223107, "index": 899},
    {"name": "Schahfer", "state": "IN", "lat": 41.2203928, "lon": -87.023379, "index": 900},
    {"name": "Tower Road", "state": "IN", "lat": 41.48434165, "lon": -87.1179215, "index": 901},
    {"name": "Babcock", "state": "IN", "lat": 41.5340126, "lon": -87.102205, "index": 902},
    {"name": "Lake George", "state": "IN", "lat": 41.5379346, "lon": -87.282715, "index": 903},
    {"name": "Stillwell", "state": "IN", "lat": 41.5370438, "lon": -86.57882765, "index": 904},
    {"name": "St. John's", "state": "IN", "lat": 41.45092975, "lon": -87.3990063, "index": 905},
    {"name": "Crete", "state": "IN", "lat": 41.43104405, "lon": -87.6192437, "index": 906},
    {"name": "Benton Harbor", "state": "MI", "lat": 42.1889683, "lon": -86.334353, "index": 907},
    {"name": "Segreto", "state": "MI", "lat": 42.31688485, "lon": -86.2932388, "index": 908},
    {"name": "Palisades", "state": "MI", "lat": 42.3211785, "lon": -86.3066632, "index": 909},
    {"name": "New Covert", "state": "MI", "lat": 42.3215772, "lon": -86.29402, "index": 910},
    {"name": "Argenta", "state": "MI", "lat": 42.4364164, "lon": -85.6087457, "index": 911},
    {"name": "Roosevelt", "state": "MI", "lat": 42.8324476, "lon": -85.9769379, "index": 912},
    {"name": "Vergennes", "state": "MI", "lat": 43.0000762, "lon": -85.41551135, "index": 913},
    {"name": "Gaines", "state": "MI", "lat": 42.81782925, "lon": -85.553503, "index": 914},
    {"name": "Zeeland", "state": "MI", "lat": 42.8208472, "lon": -85.99679165, "index": 915},
    {"name": "Campbell 345 kV", "state": "MI", "lat": 42.9151678, "lon": -86.1909286, "index": 916},
    {"name": "Tallmadge", "state": "MI", "lat": 42.96950915, "lon": -85.80897, "index": 917},
    {"name": "Ludington", "state": "MI", "lat": 43.8898676, "lon": -86.4414523, "index": 918},
    {"name": "Kenowa", "state": "MI", "lat": 43.17946205, "lon": -85.8214496, "index": 919},
    {"name": "Unknown MI 3", "state": "MI", "lat": 43.9464949, "lon": -86.3632364, "index": 920},
    {"name": "Keystone (MI)", "state": "MI", "lat": 44.6954348, "lon": -85.6163485, "index": 921},
    {"name": "Livingston", "state": "MI", "lat": 45.0295328, "lon": -84.7330219, "index": 922},
    {"name": "Tittabawassee", "state": "MI", "lat": 43.57385904, "lon": -84.1815765, "index": 923},
    {"name": "Midland", "state": "MI", "lat": 43.58413394, "lon": -84.22506585, "index": 924},
    {"name": "Nelson Road", "state": "MI", "lat": 43.21086435, "lon": -84.83010985, "index": 925},
    {"name": "Renaissance", "state": "MI", "lat": 43.18707545, "lon": -84.8428596, "index": 926},
    {"name": "Murphy", "state": "MI", "lat": 43.43300485, "lon": -84.216702, "index": 927},
    {"name": "Hampton", "state": "MI", "lat": 43.6310943, "lon": -83.8252819, "index": 928},
    {"name": "Unknown MI 4", "state": "MI", "lat": 43.10312975, "lon": -82.7020908, "index": 929},
    {"name": "Unknown MI 5", "state": "MI", "lat": 43.8294661, "lon": -82.8690027, "index": 930},
    {"name": "Unknown MI 6", "state": "MI", "lat": 42.91902075, "lon": -82.7045933, "index": 931},
    {"name": "Battle Creek", "state": "MI", "lat": 42.36866965, "lon": -85.1584403, "index": 932},
    {"name": "Tompkins", "state": "MI", "lat": 42.41566245, "lon": -84.4861272, "index": 933},
    {"name": "Oneida", "state": "MI", "lat": 42.68581935, "lon": -84.78549, "index": 934},
    {"name": "Majestic", "state": "MI", "lat": 42.37789965, "lon": -83.9807025, "index": 935},
    {"name": "Coventry", "state": "MI", "lat": 42.35316305, "lon": -83.6231614, "index": 936},
    {"name": "Unknown MI 7", "state": "MI", "lat": 42.5548047, "lon": -84.025132, "index": 937},
    {"name": "Unknown MI 8", "state": "MI", "lat": 42.9234558, "lon": -83.4533092, "index": 938},
    {"name": "Thetford", "state": "MI", "lat": 43.1582461, "lon": -83.6305361, "index": 939},
    {"name": "Goss", "state": "MI", "lat": 43.0240952, "lon": -83.9434043, "index": 940},
    {"name": "Slate", "state": "MI", "lat": 43.2096464, "lon": -84.5294624, "index": 941},
    {"name": "Unknown MI 9 (Wind)", "state": "MI", "lat": 43.25700985, "lon": -84.4999085, "index": 942}
  ],
  "links": [
    {"source": 0,  "target": 1,  "voltage": 765,  "length": 56},
    {"source": 1,  "target": 2,  "voltage": 765,  "length": 65},
    {"source": 2,  "target": 3,  "voltage": 765,  "length": 90},
    {"source": 2,  "target": 4,  "voltage": 765,  "length": 73},
    {"source": 2,  "target": 5,  "voltage": 765,  "length": 49},
    {"source": 5,  "target": 6,  "voltage": 765,  "length": 1},
    {"source": 6,  "target": 7,  "voltage": 765,  "length": 34},
    {"source": 3,  "target": 7,  "voltage": 765,  "length": 59},
    {"source": 7,  "target": 8,  "voltage": 765,  "length": 15},
    {"source": 7,  "target": 9,  "voltage": 765,  "length": 42},
    {"source": 9,  "target": 10, "voltage": 765,  "length": 11},
    {"source": 8,  "target": 10, "voltage": 765,  "length": 47},
    {"source": 8,  "target": 11, "voltage": 765,  "length": 32},
    {"source": 9,  "target": 12, "voltage": 765,  "length": 15},
    {"source": 12, "target": 13, "voltage": 765,  "length": 111},
    {"source": 13, "target": 14, "voltage": 765,  "length": 25},
    {"source": 13, "target": 417, "voltage": 765,  "length": 117},
    {"source": 14, "target": 411, "voltage": 765,  "length": 10},
    {"source": 15, "target": 24, "voltage": 765,  "length": 36},
    {"source": 15, "target": 25, "voltage": 765,  "length": 90},
    {"source": 15, "target": 417, "voltage": 765,  "length": 73},
    {"source": 16, "target": 17, "voltage": 765,  "length": 49},
    {"source": 16, "target": 27, "voltage": 765,  "length": 80},
    {"source": 16, "target": 411, "voltage": 765,  "length": 117},
    {"source": 17, "target": 10, "voltage": 765,  "length": 66},
    {"source": 18, "target": 6,  "voltage": 765,  "length": 1},
    {"source": 18, "target": 11, "voltage": 765,  "length": 1},
    {"source": 18, "target": 19, "voltage": 765,  "length": 1},
    {"source": 18, "target": 20, "voltage": 765,  "length": 161},
    {"source": 20, "target": 21, "voltage": 765,  "length": 111},
    {"source": 20, "target": 22, "voltage": 765,  "length": 125},
    {"source": 21, "target": 23, "voltage": 765,  "length": 97},
    {"source": 22, "target": 15, "voltage": 765,  "length": 78},
    {"source": 25, "target": 26, "voltage": 765,  "length": 27},
    {"source": 26, "target": 28, "voltage": 765,  "length": 35},

    {"source": 1, "target": 29, "voltage": 500,  "length": 44, "ref": 566},
    {"source": 2, "target": 89, "voltage": 500,  "length": 54},
    {"source": 5,  "target": 173,  "voltage": 500,  "length": 50},
    {"source": 16, "target": 48, "voltage": 500,  "length": 42},
    {"source": 17, "target": 51, "voltage": 500,  "length": 55},
    {"source": 29, "target": 30, "voltage": 500,  "length": 35, "ref": 547},
    {"source": 29, "target": 32, "voltage": 500,  "length": 39, "ref": 555},
    {"source": 30, "target": 31, "voltage": 500,  "length": 52, "ref": 548},
    {"source": 31, "target": 32, "voltage": 500,  "length": 18},
    {"source": 31, "target": 47, "voltage": 500,  "length": 65, "ref": 550},
    {"source": 32, "target": 33, "voltage": 500,  "length": 33, "ref": 534},
    {"source": 33, "target": 34, "voltage": 500,  "length": 51, "ref": 553},
    {"source": 33, "target": 424, "voltage": 500,  "length": 1, "ref": "542 / 564"},
    {"source": 34, "target": 35, "voltage": 500,  "length": 28},
    {"source": 34, "target": 45, "voltage": 500,  "length": 26},
    {"source": 35, "target": 36, "voltage": 500,  "length": 45, "ref": 567},
    {"source": 36, "target": 37, "voltage": 500,  "length": 37},
    {"source": 36, "target": 40, "voltage": 500,  "length": 11, "ref": 578},
    {"source": 36, "target": 422, "voltage": 500,  "length": 8, "ref": 582},
    {"source": 37, "target": 38, "voltage": 500,  "length": 13},
    {"source": 37, "target": 41, "voltage": 500,  "length": 1, "ref": 544},
    {"source": 38, "target": 39, "voltage": 500,  "length": 14},
    {"source": 39, "target": 40, "voltage": 500,  "length": 33},
    {"source": 40, "target": 41, "voltage": 500,  "length": 38, "ref": 562},
    {"source": 41, "target": 43, "voltage": 500,  "length": 37, "ref": 563},
    {"source": 41, "target": 284, "voltage": 500,  "length": 1, "ref": 511},
    {"source": 41, "target": 285, "voltage": 500,  "length": 28, "ref": 585},
    {"source": 42, "target": 284, "voltage": 500,  "length": 1, "ref": 556},
    {"source": 43, "target": 44, "voltage": 500,  "length": 40},
    {"source": 44, "target": 45, "voltage": 500,  "length": 15},
    {"source": 44, "target": 425, "voltage": 500,  "length": 14, "ref": 573},
    {"source": 45, "target": 57, "voltage": 500,  "length": 15},
    {"source": 45, "target": 62, "voltage": 500,  "length": 48, "ref": 568},
    {"source": 46, "target": 56, "voltage": 500,  "length": 31, "ref": 569},
    {"source": 46, "target": 58, "voltage": 500,  "length": 8, "ref": 545},
    {"source": 46, "target": 425, "voltage": 500,  "length": 19, "ref": 594},
    {"source": 46, "target": 282, "voltage": 500,  "length": 1, "ref": 541},
    {"source": 47, "target": 48, "voltage": 500,  "length": 76},
    {"source": 47, "target": 52, "voltage": 500,  "length": 46, "ref": 554},
    {"source": 47, "target": 53, "voltage": 500,  "length": 3},
    {"source": 47, "target": 54, "voltage": 500,  "length": 60, "ref": 5529},
    {"source": 47, "target": 55, "voltage": 500,  "length": 99},
    {"source": 48, "target": 49, "voltage": 500,  "length": 4},
    {"source": 49, "target": 50, "voltage": 500,  "length": 2},
    {"source": 48, "target": 51, "voltage": 500,  "length": 30},
    {"source": 50, "target": 52, "voltage": 500,  "length": 28, "ref": 508},
    {"source": 50, "target": 73, "voltage": 500,  "length": 14, "ref": 516},
    {"source": 51, "target": 52, "voltage": 500,  "length": 15},
    {"source": 51, "target": 69, "voltage": 500,  "length": 79},
    {"source": 53, "target": 54, "voltage": 500,  "length": 56, "ref": 540},
    {"source": 54, "target": 56, "voltage": 500,  "length": 81, "ref": 535},
    {"source": 54, "target": 282, "voltage": 500,  "length": 1},
    {"source": 55, "target": 61, "voltage": 500,  "length": 18},
    {"source": 55, "target": 67, "voltage": 500,  "length": 35, "ref": "5055 / 522"},
    {"source": 55, "target": 70, "voltage": 500,  "length": 32},
    {"source": 56, "target": 60, "voltage": 500,  "length": 12, "ref": 559},
    {"source": 56, "target": 281, "voltage": 500,  "length": 7, "ref": 590},
    {"source": 57, "target": 58, "voltage": 500,  "length": 22, "ref": 552},
    {"source": 58, "target": 59, "voltage": 500,  "length": 23, "ref": 539},
    {"source": 59, "target": 60, "voltage": 500,  "length": 7},
    {"source": 59, "target": 62, "voltage": 500,  "length": 13},
    {"source": 61, "target": 281, "voltage": 500,  "length": 6, "ref": 558},
    {"source": 62, "target": 63, "voltage": 500,  "length": 33, "ref": "5070 / 560"},
    {"source": 63, "target": 423, "voltage": 500,  "length": 1, "ref": 5071},
    {"source": 64, "target": 65, "voltage": 500,  "length": 18, "ref": 5072},
    {"source": 64, "target": 423, "voltage": 500,  "length": 1, "ref": 5073},
    {"source": 65, "target": 66, "voltage": 500,  "length": 48, "ref": "5051 / 5052"},
    {"source": 66, "target": 67, "voltage": 500,  "length": 27, "ref": 5053},
    {"source": 67, "target": 68, "voltage": 500,  "length": 66, "ref": 5011},
    {"source": 68, "target": 77, "voltage": 500,  "length": 40, "ref": 5013},
    {"source": 68, "target": 146, "voltage": 500,  "length": 17, "ref": 5012},
    {"source": 69, "target": 418, "voltage": 500,  "length": 35},
    {"source": 70, "target": 71, "voltage": 500,  "length": 60, "ref": 544},
    {"source": 71, "target": 72, "voltage": 500,  "length": 61},
    {"source": 72, "target": 73, "voltage": 500,  "length": 2},
    {"source": 72, "target": 419, "voltage": 500,  "length": 29},
    {"source": 74, "target": 333, "voltage": 500,  "length": 37},
    {"source": 74, "target": 419, "voltage": 500,  "length": 3},
    {"source": 75, "target": 76, "voltage": 500,  "length": 26, "ref": 5003},
    {"source": 75, "target": 143, "voltage": 500,  "length": 118, "ref": 5004},
    {"source": 75, "target": 144, "voltage": 500,  "length": 27, "ref": 5002},
    {"source": 75, "target": 333, "voltage": 500,  "length": 2},
    {"source": 76, "target": 77, "voltage": 500,  "length": 112, "ref": 5006},
    {"source": 76, "target": 143, "voltage": 500,  "length": 122, "ref": 5005},
    {"source": 283, "target": 285, "voltage": 500,  "length": 5, "ref": 503},
    {"source": 78, "target": 283, "voltage": 500,  "length": 86, "ref": 570},
    {"source": 78, "target": 79, "voltage": 500,  "length": 28},
    {"source": 79, "target": 80, "voltage": 500,  "length": 46},
    {"source": 80, "target": 81, "voltage": 500,  "length": 10},
    {"source": 78, "target": 82, "voltage": 500,  "length": 67},
    {"source": 82, "target": 83, "voltage": 500,  "length": 57},
    {"source": 83, "target": 84, "voltage": 500,  "length": 81},
    {"source": 84, "target": 85, "voltage": 500,  "length": 32},
    {"source": 85, "target": 86, "voltage": 500,  "length": 30},
    {"source": 86, "target": 87, "voltage": 500,  "length": 53},
    {"source": 87, "target": 88, "voltage": 500,  "length": 50},
    {"source": 85, "target": 89, "voltage": 500,  "length": 55},
    {"source": 85, "target": 90, "voltage": 500,  "length": 49},
    {"source": 90, "target": 91, "voltage": 500,  "length": 71},
    {"source": 91, "target": 92, "voltage": 500,  "length": 21},
    {"source": 84, "target": 92, "voltage": 500,  "length": 1},
    {"source": 92, "target": 93, "voltage": 500,  "length": 69},
    {"source": 93, "target": 94, "voltage": 500,  "length": 33},
    {"source": 94, "target": 95, "voltage": 500,  "length": 10},
    {"source": 95, "target": 96, "voltage": 500,  "length": 12},
    {"source": 96, "target": 97, "voltage": 500,  "length": 24},
    {"source": 97, "target": 98, "voltage": 500,  "length": 28},
    {"source": 97, "target": 165, "voltage": 500,  "length": 21},
    {"source": 98, "target": 99, "voltage": 500,  "length": 30},
    {"source": 97, "target": 99, "voltage": 500,  "length": 58},
    {"source": 99, "target": 100, "voltage": 500,  "length": 12},
    {"source": 98, "target": 101, "voltage": 500,  "length": 26},
    {"source": 94, "target": 102, "voltage": 500,  "length": 27},
    {"source": 100, "target": 101, "voltage": 500,  "length": 51},
    {"source": 100, "target": 102, "voltage": 500,  "length": 24},
    {"source": 100, "target": 103, "voltage": 500,  "length": 52},
    {"source": 102, "target": 103, "voltage": 500,  "length": 49},
    {"source": 103, "target": 104, "voltage": 500,  "length": 78},
    {"source": 104, "target": 105, "voltage": 500,  "length": 39},
    {"source": 104, "target": 106, "voltage": 500,  "length": 76},
    {"source": 106, "target": 107, "voltage": 500,  "length": 71},
    {"source": 107, "target": 108, "voltage": 500,  "length": 90},
    {"source": 108, "target": 109, "voltage": 500,  "length": 65},
    {"source": 109, "target": 110, "voltage": 500,  "length": 90},
    {"source": 103, "target": 110, "voltage": 500,  "length": 45},
    {"source": 109, "target": 111, "voltage": 500,  "length": 82},
    {"source": 111, "target": 112, "voltage": 500,  "length": 117},
    {"source": 101, "target": 112, "voltage": 500,  "length": 55},
    {"source": 109, "target": 113, "voltage": 500,  "length": 127},
    {"source": 111, "target": 114, "voltage": 500,  "length": 34},
    {"source": 114, "target": 115, "voltage": 500,  "length": 62},
    {"source": 108, "target": 113, "voltage": 500,  "length": 79},
    {"source": 113, "target": 116, "voltage": 500,  "length": 46},
    {"source": 113, "target": 117, "voltage": 500,  "length": 173},
    {"source": 116, "target": 117, "voltage": 500,  "length": 127},
    {"source": 117, "target": 118, "voltage": 500,  "length": 93},
    {"source": 117, "target": 119, "voltage": 500,  "length": 110},
    {"source": 118, "target": 119, "voltage": 500,  "length": 29},
    {"source": 118, "target": 120, "voltage": 500,  "length": 57},
    {"source": 119, "target": 120, "voltage": 500,  "length": 32},
    {"source": 119, "target": 121, "voltage": 500,  "length": 84},
    {"source": 120, "target": 121, "voltage": 500,  "length": 53},
    {"source": 120, "target": 122, "voltage": 500,  "length": 57},
    {"source": 121, "target": 123, "voltage": 500,  "length": 107},
    {"source": 121, "target": 124, "voltage": 500,  "length": 16},
    {"source": 115, "target": 125, "voltage": 500,  "length": 97},
    {"source": 125, "target": 126, "voltage": 500,  "length": 28},
    {"source": 126, "target": 127, "voltage": 500,  "length": 21},
    {"source": 127, "target": 128, "voltage": 500,  "length": 44},
    {"source": 128, "target": 129, "voltage": 500,  "length": 31},
    {"source": 129, "target": 130, "voltage": 500,  "length": 32},
    {"source": 129, "target": 131, "voltage": 500,  "length": 46},
    {"source": 131, "target": 132, "voltage": 500,  "length": 72},
    {"source": 132, "target": 133, "voltage": 500,  "length": 22},
    {"source": 132, "target": 142, "voltage": 500,  "length": 40},
    {"source": 133, "target": 134, "voltage": 500,  "length": 27},
    {"source": 133, "target": 169, "voltage": 500,  "length": 50},
    {"source": 129, "target": 135, "voltage": 500,  "length": 72},
    {"source": 135, "target": 136, "voltage": 500,  "length": 1},
    {"source": 136, "target": 137, "voltage": 500,  "length": 3},
    {"source": 137, "target": 138, "voltage": 500,  "length": 21},
    {"source": 138, "target": 139, "voltage": 500,  "length": 119},
    {"source": 138, "target": 194, "voltage": 500,  "length": 37},
    {"source": 139, "target": 140, "voltage": 500,  "length": 10},
    {"source": 139, "target": 180, "voltage": 500,  "length": 87},
    {"source": 139, "target": 141, "voltage": 500,  "length": 17},
    {"source": 139, "target": 142, "voltage": 500,  "length": 37},
    {"source": 139, "target": 223, "voltage": 500,  "length": 112},
    {"source": 141, "target": 142, "voltage": 500,  "length": 24},
    {"source": 144, "target": 418, "voltage": 500,  "length": 18},
    {"source": 143, "target": 145, "voltage": 500,  "length": 44, "ref": 5008},
    {"source": 143, "target": 148, "voltage": 500,  "length": 88, "ref": 5009},
    {"source": 143, "target": 149, "voltage": 500,  "length": 38, "ref": 5046},
    {"source": 145, "target": 146, "voltage": 500,  "length": 40, "ref": 5007},
    {"source": 145, "target": 415, "voltage": 500,  "length": 40, "ref": 5026},
    {"source": 146, "target": 154, "voltage": 500,  "length": 57, "ref": 5010},
    {"source": 146, "target": 155, "voltage": 500,  "length": 8, "ref": 5014},
    {"source": 146, "target": 414, "voltage": 500,  "length": 4, "ref": 5034},
    {"source": 147, "target": 148, "voltage": 500,  "length": 5, "ref": 5027},
    {"source": 147, "target": 164, "voltage": 500,  "length": 17, "ref": 5028},
    {"source": 147, "target": 310, "voltage": 500,  "length": 20, "ref": 5032},
    {"source": 147, "target": 415, "voltage": 500,  "length": 35, "ref": 5066},
    {"source": 148, "target": 416, "voltage": 500,  "length": 6, "ref": 5058},
    {"source": 151, "target": 416, "voltage": 500,  "length": 5, "ref": 5044},
    {"source": 148, "target": 152, "voltage": 500,  "length": 48, "ref": 5016},
    {"source": 149, "target": 150, "voltage": 500,  "length": 43, "ref": 5045},
    {"source": 150, "target": 151, "voltage": 500,  "length": 67, "ref": 5043},
    {"source": 150, "target": 421, "voltage": 500,  "length": 1},
    {"source": 334, "target": 421, "voltage": 500,  "length": 1},
    {"source": 152, "target": 153, "voltage": 500,  "length": 49},
    {"source": 152, "target": 161, "voltage": 500,  "length": 20, "ref": 5019},
    {"source": 152, "target": 164, "voltage": 500,  "length": 40, "ref": 5017},
    {"source": 152, "target": 335, "voltage": 500,  "length": 40},
    {"source": 153, "target": 154, "voltage": 500,  "length": 16, "ref": "5030 / 5031"},
    {"source": 153, "target": 420, "voltage": 500,  "length": 4, "ref": 5029},
    {"source": 164, "target": 420, "voltage": 500,  "length": 5, "ref": 5033},
    {"source": 155, "target": 156, "voltage": 500,  "length": 27, "ref": 5025},
    {"source": 156, "target": 157, "voltage": 500,  "length": 8, "ref": 5036},
    {"source": 157, "target": 158, "voltage": 500,  "length": 17, "ref": 5015},
    {"source": 158, "target": 159, "voltage": 500,  "length": 1, "ref": 5037},
    {"source": 158, "target": 160, "voltage": 500,  "length": 43, "ref": 5023},
    {"source": 159, "target": 160, "voltage": 500,  "length": 50, "ref": 5024},
    {"source": 159, "target": 413, "voltage": 500,  "length": 19, "ref": 5021},
    {"source": 160, "target": 412, "voltage": 500,  "length": 53, "ref": 5038},
    {"source": 160, "target": 413, "voltage": 500,  "length": 24, "ref": 5039},
    {"source": 161, "target": 162, "voltage": 500,  "length": 18, "ref": 5020},
    {"source": 161, "target": 412, "voltage": 500,  "length": 15, "ref": 5022},
    {"source": 163, "target": 335, "voltage": 500,  "length": 1, "ref": 5018},
    {"source": 165, "target": 166, "voltage": 500,  "length": 35},
    {"source": 165, "target": 167, "voltage": 500,  "length": 23},
    {"source": 167, "target": 168, "voltage": 500,  "length": 26},
    {"source": 168, "target": 169, "voltage": 500,  "length": 18},
    {"source": 169, "target": 170, "voltage": 500,  "length": 34},
    {"source": 169, "target": 179, "voltage": 500,  "length": 63},
    {"source": 170, "target": 171, "voltage": 500,  "length": 93},
    {"source": 170, "target": 177, "voltage": 500,  "length": 54},
    {"source": 170, "target": 178, "voltage": 500,  "length": 40},
    {"source": 171, "target": 172, "voltage": 500,  "length": 65},
    {"source": 171, "target": 177, "voltage": 500,  "length": 21},
    {"source": 172, "target": 173, "voltage": 500,  "length": 48},
    {"source": 172, "target": 174, "voltage": 500,  "length": 14},
    {"source": 172, "target": 175, "voltage": 500,  "length": 28},
    {"source": 173, "target": 174, "voltage": 500,  "length": 39},
    {"source": 175, "target": 176, "voltage": 500,  "length": 41},
    {"source": 177, "target": 178, "voltage": 500,  "length": 16},
    {"source": 178, "target": 184, "voltage": 500,  "length": 123},
    {"source": 179, "target": 180, "voltage": 500,  "length": 64},
    {"source": 180, "target": 181, "voltage": 500,  "length": 28},
    {"source": 180, "target": 182, "voltage": 500,  "length": 28},
    {"source": 182, "target": 183, "voltage": 500,  "length": 28},
    {"source": 182, "target": 185, "voltage": 500,  "length": 41},
    {"source": 182, "target": 186, "voltage": 500,  "length": 48},
    {"source": 182, "target": 187, "voltage": 500,  "length": 57},
    {"source": 183, "target": 184, "voltage": 500,  "length": 14},
    {"source": 184, "target": 185, "voltage": 500,  "length": 57},
    {"source": 185, "target": 186, "voltage": 500,  "length": 39},
    {"source": 185, "target": 188, "voltage": 500,  "length": 52},
    {"source": 186, "target": 187, "voltage": 500,  "length": 33},
    {"source": 186, "target": 189, "voltage": 500,  "length": 78},
    {"source": 187, "target": 191, "voltage": 500,  "length": 53},
    {"source": 187, "target": 233, "voltage": 500,  "length": 43},
    {"source": 189, "target": 190, "voltage": 500,  "length": 28},
    {"source": 191, "target": 192, "voltage": 500,  "length": 26},
    {"source": 192, "target": 193, "voltage": 500,  "length": 41},
    {"source": 193, "target": 221, "voltage": 500,  "length": 42},
    {"source": 193, "target": 224, "voltage": 500,  "length": 27},
    {"source": 193, "target": 230, "voltage": 500,  "length": 21},
    {"source": 194, "target": 195, "voltage": 500,  "length": 13},
    {"source": 195, "target": 196, "voltage": 500,  "length": 1},
    {"source": 196, "target": 197, "voltage": 500,  "length": 24},
    {"source": 197, "target": 198, "voltage": 500,  "length": 57},
    {"source": 198, "target": 199, "voltage": 500,  "length": 23},
    {"source": 199, "target": 200, "voltage": 500,  "length": 58},
    {"source": 199, "target": 219, "voltage": 500,  "length": 36},
    {"source": 200, "target": 201, "voltage": 500,  "length": 71},
    {"source": 200, "target": 202, "voltage": 500,  "length": 56},
    {"source": 200, "target": 220, "voltage": 500,  "length": 44},
    {"source": 202, "target": 203, "voltage": 500,  "length": 151},
    {"source": 202, "target": 204, "voltage": 500,  "length": 18},
    {"source": 202, "target": 207, "voltage": 500,  "length": 27},
    {"source": 204, "target": 205, "voltage": 500,  "length": 21},
    {"source": 205, "target": 206, "voltage": 500,  "length": 52},
    {"source": 205, "target": 209, "voltage": 500,  "length": 29},
    {"source": 207, "target": 208, "voltage": 500,  "length": 3},
    {"source": 208, "target": 209, "voltage": 500,  "length": 27},
    {"source": 209, "target": 210, "voltage": 500,  "length": 40},
    {"source": 210, "target": 211, "voltage": 500,  "length": 16},
    {"source": 211, "target": 212, "voltage": 500,  "length": 59},
    {"source": 212, "target": 213, "voltage": 500,  "length": 27},
    {"source": 213, "target": 214, "voltage": 500,  "length": 129},
    {"source": 213, "target": 247, "voltage": 500,  "length": 32},
    {"source": 214, "target": 215, "voltage": 500,  "length": 51},
    {"source": 215, "target": 216, "voltage": 500,  "length": 50},
    {"source": 216, "target": 217, "voltage": 500,  "length": 51},
    {"source": 216, "target": 229, "voltage": 500,  "length": 76},
    {"source": 216, "target": 246, "voltage": 500,  "length": 38},
    {"source": 217, "target": 218, "voltage": 500,  "length": 4},
    {"source": 218, "target": 219, "voltage": 500,  "length": 71},
    {"source": 219, "target": 220, "voltage": 500,  "length": 22},
    {"source": 221, "target": 222, "voltage": 500,  "length": 27},
    {"source": 222, "target": 223, "voltage": 500,  "length": 13},
    {"source": 224, "target": 225, "voltage": 500,  "length": 10},
    {"source": 225, "target": 226, "voltage": 500,  "length": 6},
    {"source": 226, "target": 227, "voltage": 500,  "length": 112},
    {"source": 227, "target": 228, "voltage": 500,  "length": 17},
    {"source": 227, "target": 237, "voltage": 500,  "length": 86},
    {"source": 227, "target": 238, "voltage": 500,  "length": 11},
    {"source": 228, "target": 229, "voltage": 500,  "length": 19},
    {"source": 229, "target": 239, "voltage": 500,  "length": 20},
    {"source": 229, "target": 243, "voltage": 500,  "length": 24},
    {"source": 230, "target": 231, "voltage": 500,  "length": 35},
    {"source": 230, "target": 234, "voltage": 500,  "length": 23},
    {"source": 231, "target": 232, "voltage": 500,  "length": 54},
    {"source": 232, "target": 233, "voltage": 500,  "length": 13},
    {"source": 234, "target": 235, "voltage": 500,  "length": 19},
    {"source": 235, "target": 236, "voltage": 500,  "length": 55},
    {"source": 235, "target": 237, "voltage": 500,  "length": 83},
    {"source": 238, "target": 239, "voltage": 500,  "length": 15},
    {"source": 239, "target": 240, "voltage": 500,  "length": 30},
    {"source": 239, "target": 241, "voltage": 500,  "length": 87},
    {"source": 240, "target": 241, "voltage": 500,  "length": 61},
    {"source": 241, "target": 242, "voltage": 500,  "length": 93},
    {"source": 243, "target": 244, "voltage": 500,  "length": 3},
    {"source": 244, "target": 245, "voltage": 500,  "length": 10},
    {"source": 245, "target": 246, "voltage": 500,  "length": 75},
    {"source": 283, "target": 284, "voltage": 500,  "length": 14, "ref": 591},
    {"source": 334, "target": 335, "voltage": 500,  "length": 1},
    {"source": 335, "target": 336, "voltage": 500,  "length": 1},
    {"source": 478, "target": 479, "voltage": 500,  "length": 53},
    {"source": 479, "target": 480, "voltage": 500,  "length": 44},
    {"source": 478, "target": 481, "voltage": 500,  "length": 35},
    {"source": 481, "target": 482, "voltage": 500,  "length": 38},

    {"source": 1, "target": 286, "voltage": 345,  "length": 27},
    {"source": 6, "target": 426, "voltage": 345,  "length": 14},
    {"source": 8, "target": 287, "voltage": 345,  "length": 1},
    {"source": 8, "target": 288, "voltage": 345,  "length": 1},
    {"source": 15, "target": 883, "voltage": 345,  "length": 15},
    {"source": 15, "target": 886, "voltage": 345,  "length": 17},
    {"source": 15, "target": 904, "voltage": 345,  "length": 11},
    {"source": 16, "target": 291, "voltage": 345,  "length": 1},
    {"source": 16, "target": 292, "voltage": 345,  "length": 13},
    {"source": 20, "target": 445, "voltage": 345,  "length": 1},
    {"source": 23, "target": 848, "voltage": 345,  "length": 1},
    {"source": 23, "target": 861, "voltage": 345,  "length": 13},
    {"source": 23, "target": 862, "voltage": 345,  "length": 97},
    {"source": 24, "target": 886, "voltage": 345,  "length": 37},
    {"source": 24, "target": 895, "voltage": 345,  "length": 48},
    {"source": 24, "target": 907, "voltage": 345,  "length": 22},
    {"source": 24, "target": 908, "voltage": 345,  "length": 31},
    {"source": 25, "target": 757, "voltage": 345,  "length": 52},
    {"source": 25, "target": 761, "voltage": 345,  "length": 31},
    {"source": 25, "target": 770, "voltage": 345,  "length": 29},
    {"source": 27, "target": 298, "voltage": 345,  "length": 34},
    {"source": 28, "target": 724, "voltage": 345,  "length": 21},
    {"source": 28, "target": 754, "voltage": 345,  "length": 41},
    {"source": 176, "target": 427, "voltage": 345,  "length": 48},
    {"source": 176, "target": 428, "voltage": 345,  "length": 90},
    {"source": 190, "target": 840, "voltage": 345,  "length": 9},
    {"source": 190, "target": 841, "voltage": 345,  "length": 53},
    {"source": 216, "target": 248, "voltage": 345,  "length": 58},
    {"source": 236, "target": 831, "voltage": 345,  "length": 59},
    {"source": 236, "target": 832, "voltage": 345,  "length": 59},
    {"source": 242, "target": 266, "voltage": 345,  "length": 71},
    {"source": 248, "target": 249, "voltage": 345,  "length": 40},
    {"source": 249, "target": 250, "voltage": 345,  "length": 19},
    {"source": 249, "target": 261, "voltage": 345,  "length": 38},
    {"source": 250, "target": 251, "voltage": 345,  "length": 35},
    {"source": 250, "target": 252, "voltage": 345,  "length": 57},
    {"source": 252, "target": 253, "voltage": 345,  "length": 25},
    {"source": 252, "target": 259, "voltage": 345,  "length": 24},
    {"source": 253, "target": 254, "voltage": 345,  "length": 6},
    {"source": 254, "target": 255, "voltage": 345,  "length": 31},
    {"source": 255, "target": 256, "voltage": 345,  "length": 67},
    {"source": 256, "target": 257, "voltage": 345,  "length": 64},
    {"source": 257, "target": 258, "voltage": 345,  "length": 3},
    {"source": 259, "target": 260, "voltage": 345,  "length": 1},
    {"source": 259, "target": 261, "voltage": 345,  "length": 31},
    {"source": 259, "target": 262, "voltage": 345,  "length": 57},
    {"source": 259, "target": 263, "voltage": 345,  "length": 32},
    {"source": 262, "target": 263, "voltage": 345,  "length": 32},
    {"source": 263, "target": 264, "voltage": 345,  "length": 43},
    {"source": 264, "target": 265, "voltage": 345,  "length": 70},
    {"source": 264, "target": 553, "voltage": 345,  "length": 18},
    {"source": 265, "target": 266, "voltage": 345,  "length": 110},
    {"source": 265, "target": 551, "voltage": 345,  "length": 51},
    {"source": 265, "target": 552, "voltage": 345,  "length": 87},
    {"source": 266, "target": 267, "voltage": 345,  "length": 16},
    {"source": 266, "target": 271, "voltage": 345,  "length": 21},
    {"source": 267, "target": 268, "voltage": 345,  "length": 36},
    {"source": 268, "target": 269, "voltage": 345,  "length": 79},
    {"source": 268, "target": 270, "voltage": 345,  "length": 18},
    {"source": 269, "target": 571, "voltage": 345,  "length": 5},
    {"source": 270, "target": 271, "voltage": 345,  "length": 16},
    {"source": 270, "target": 274, "voltage": 345,  "length": 31},
    {"source": 271, "target": 272, "voltage": 345,  "length": 68},
    {"source": 272, "target": 273, "voltage": 345,  "length": 12},
    {"source": 274, "target": 275, "voltage": 345,  "length": 23},
    {"source": 274, "target": 815, "voltage": 345,  "length": 30},
    {"source": 275, "target": 276, "voltage": 345,  "length": 49},
    {"source": 276, "target": 277, "voltage": 345,  "length": 3},
    {"source": 276, "target": 278, "voltage": 345,  "length": 44},
    {"source": 278, "target": 279, "voltage": 345,  "length": 104},
    {"source": 279, "target": 280, "voltage": 345,  "length": 30},
    {"source": 280, "target": 814, "voltage": 345,  "length": 91},
    {"source": 280, "target": 816, "voltage": 345,  "length": 48},
    {"source": 286, "target": 287, "voltage": 345,  "length": 1},
    {"source": 287, "target": 288, "voltage": 345,  "length": 1},
    {"source": 288, "target": 289, "voltage": 345,  "length": 13},
    {"source": 288, "target": 290, "voltage": 345,  "length": 1},
    {"source": 288, "target": 291, "voltage": 345,  "length": 1},
    {"source": 288, "target": 426, "voltage": 345,  "length": 63},
    {"source": 290, "target": 291, "voltage": 345,  "length": 1},
    {"source": 291, "target": 311, "voltage": 345,  "length": 43},
    {"source": 292, "target": 293, "voltage": 345,  "length": 19},
    {"source": 293, "target": 294, "voltage": 345,  "length": 32},
    {"source": 293, "target": 302, "voltage": 345,  "length": 52},
    {"source": 294, "target": 295, "voltage": 345,  "length": 1},
    {"source": 294, "target": 297, "voltage": 345,  "length": 1},
    {"source": 295, "target": 296, "voltage": 345,  "length": 1},
    {"source": 296, "target": 297, "voltage": 345,  "length": 1},
    {"source": 296, "target": 304, "voltage": 345,  "length": 2},
    {"source": 297, "target": 304, "voltage": 345,  "length": 12},
    {"source": 298, "target": 299, "voltage": 345,  "length": 69},
    {"source": 298, "target": 300, "voltage": 345,  "length": 30},
    {"source": 298, "target": 318, "voltage": 345,  "length": 50},
    {"source": 299, "target": 307, "voltage": 345,  "length": 50},
    {"source": 300, "target": 301, "voltage": 345,  "length": 28},
    {"source": 300, "target": 305, "voltage": 345,  "length": 10},
    {"source": 300, "target": 319, "voltage": 345,  "length": 44},
    {"source": 300, "target": 321, "voltage": 345,  "length": 8},
    {"source": 300, "target": 891, "voltage": 345,  "length": 1},
    {"source": 301, "target": 302, "voltage": 345,  "length": 33},
    {"source": 301, "target": 304, "voltage": 345,  "length": 62},
    {"source": 301, "target": 307, "voltage": 345,  "length": 24},
    {"source": 304, "target": 305, "voltage": 345,  "length": 87},
    {"source": 304, "target": 307, "voltage": 345,  "length": 52},
    {"source": 304, "target": 309, "voltage": 345,  "length": 22},
    {"source": 304, "target": 891, "voltage": 345,  "length": 1},
    {"source": 306, "target": 323, "voltage": 345,  "length": 21},
    {"source": 306, "target": 891, "voltage": 345,  "length": 1},
    {"source": 307, "target": 308, "voltage": 345,  "length": 24},
    {"source": 308, "target": 309, "voltage": 345,  "length": 31},
    {"source": 311, "target": 312, "voltage": 345,  "length": 59},
    {"source": 312, "target": 313, "voltage": 345,  "length": 36},
    {"source": 313, "target": 314, "voltage": 345,  "length": 12},
    {"source": 314, "target": 315, "voltage": 345,  "length": 40},
    {"source": 314, "target": 316, "voltage": 345,  "length": 24},
    {"source": 315, "target": 316, "voltage": 345,  "length": 16},
    {"source": 315, "target": 317, "voltage": 345,  "length": 21},
    {"source": 315, "target": 324, "voltage": 345,  "length": 25},
    {"source": 316, "target": 317, "voltage": 345,  "length": 22},
    {"source": 317, "target": 318, "voltage": 345,  "length": 98},
    {"source": 318, "target": 319, "voltage": 345,  "length": 16},
    {"source": 320, "target": 321, "voltage": 345,  "length": 5},
    {"source": 321, "target": 322, "voltage": 345,  "length": 4},
    {"source": 321, "target": 892, "voltage": 345,  "length": 1},
    {"source": 322, "target": 323, "voltage": 345,  "length": 55},
    {"source": 323, "target": 342, "voltage": 345,  "length": 23},
    {"source": 323, "target": 891, "voltage": 345,  "length": 1},
    {"source": 323, "target": 892, "voltage": 345,  "length": 1},
    {"source": 324, "target": 325, "voltage": 345,  "length": 32},
    {"source": 324, "target": 326, "voltage": 345,  "length": 18},
    {"source": 324, "target": 328, "voltage": 345,  "length": 35},
    {"source": 324, "target": 936, "voltage": 345,  "length": 46},
    {"source": 325, "target": 935, "voltage": 345,  "length": 35},
    {"source": 326, "target": 327, "voltage": 345,  "length": 15},
    {"source": 326, "target": 328, "voltage": 345,  "length": 22},
    {"source": 328, "target": 329, "voltage": 345,  "length": 20},
    {"source": 328, "target": 935, "voltage": 345,  "length": 31},
    {"source": 329, "target": 330, "voltage": 345,  "length": 15},
    {"source": 329, "target": 331, "voltage": 345,  "length": 25},
    {"source": 330, "target": 331, "voltage": 345,  "length": 10},
    {"source": 331, "target": 332, "voltage": 345,  "length": 42},
    {"source": 331, "target": 938, "voltage": 345,  "length": 20},
    {"source": 331, "target": 939, "voltage": 345,  "length": 43},
    {"source": 332, "target": 931, "voltage": 345,  "length": 21},
    {"source": 337, "target": 338, "voltage": 345,  "length": 66},
    {"source": 337, "target": 343, "voltage": 345,  "length": 205},
    {"source": 337, "target": 344, "voltage": 345,  "length": 177},
    {"source": 338, "target": 339, "voltage": 345,  "length": 19},
    {"source": 339, "target": 340, "voltage": 345,  "length": 36},
    {"source": 340, "target": 341, "voltage": 345,  "length": 20},
    {"source": 340, "target": 342, "voltage": 345,  "length": 22},
    {"source": 344, "target": 345, "voltage": 345,  "length": 42},
    {"source": 345, "target": 346, "voltage": 345,  "length": 23},
    {"source": 345, "target": 362, "voltage": 345,  "length": 57},
    {"source": 346, "target": 347, "voltage": 345,  "length": 42},
    {"source": 347, "target": 348, "voltage": 345,  "length": 16},
    {"source": 347, "target": 361, "voltage": 345,  "length": 8},
    {"source": 348, "target": 349, "voltage": 345,  "length": 32},
    {"source": 349, "target": 350, "voltage": 345,  "length": 13},
    {"source": 350, "target": 351, "voltage": 345,  "length": 9},
    {"source": 350, "target": 356, "voltage": 345,  "length": 66},
    {"source": 350, "target": 355, "voltage": 345,  "length": 19},
    {"source": 351, "target": 352, "voltage": 345,  "length": 1},
    {"source": 351, "target": 353, "voltage": 345,  "length": 1},
    {"source": 351, "target": 354, "voltage": 345,  "length": 3},
    {"source": 352, "target": 355, "voltage": 345,  "length": 28},
    {"source": 353, "target": 357, "voltage": 345,  "length": 70},
    {"source": 354, "target": 355, "voltage": 345,  "length": 29},
    {"source": 355, "target": 357, "voltage": 345,  "length": 50},
    {"source": 355, "target": 358, "voltage": 345,  "length": 79},
    {"source": 355, "target": 361, "voltage": 345,  "length": 15},
    {"source": 356, "target": 357, "voltage": 345,  "length": 1},
    {"source": 356, "target": 363, "voltage": 345,  "length": 84},
    {"source": 356, "target": 364, "voltage": 345,  "length": 136},
    {"source": 357, "target": 362, "voltage": 345,  "length": 76},
    {"source": 357, "target": 363, "voltage": 345,  "length": 83},
    {"source": 358, "target": 359, "voltage": 345,  "length": 63},
    {"source": 358, "target": 360, "voltage": 345,  "length": 70},
    {"source": 359, "target": 360, "voltage": 345,  "length": 43},
    {"source": 362, "target": 364, "voltage": 345,  "length": 47},
    {"source": 362, "target": 365, "voltage": 345,  "length": 34},
    {"source": 363, "target": 365, "voltage": 345,  "length": 32},
    {"source": 363, "target": 366, "voltage": 345,  "length": 26},
    {"source": 363, "target": 394, "voltage": 345,  "length": 31},
    {"source": 364, "target": 369, "voltage": 345,  "length": 46},
    {"source": 365, "target": 366, "voltage": 345,  "length": 37},
    {"source": 366, "target": 367, "voltage": 345,  "length": 29},
    {"source": 366, "target": 380, "voltage": 345,  "length": 39},
    {"source": 366, "target": 381, "voltage": 345,  "length": 1},
    {"source": 367, "target": 368, "voltage": 345,  "length": 30},
    {"source": 163, "target": 369, "voltage": 345,  "length": 28},
    {"source": 163, "target": 370, "voltage": 345,  "length": 5},
    {"source": 163, "target": 371, "voltage": 345,  "length": 5},
    {"source": 163, "target": 373, "voltage": 345,  "length": 16},
    {"source": 368, "target": 369, "voltage": 345,  "length": 17},
    {"source": 368, "target": 379, "voltage": 345,  "length": 8},
    {"source": 371, "target": 372, "voltage": 345,  "length": 5},
    {"source": 371, "target": 373, "voltage": 345,  "length": 11},
    {"source": 373, "target": 374, "voltage": 345,  "length": 10},
    {"source": 373, "target": 375, "voltage": 345,  "length": 19},
    {"source": 374, "target": 375, "voltage": 345,  "length": 9},
    {"source": 374, "target": 378, "voltage": 345,  "length": 13},
    {"source": 375, "target": 376, "voltage": 345,  "length": 10},
    {"source": 376, "target": 377, "voltage": 345,  "length": 1},
    {"source": 377, "target": 378, "voltage": 345,  "length": 17},
    {"source": 378, "target": 379, "voltage": 345,  "length": 16},
    {"source": 378, "target": 380, "voltage": 345,  "length": 28},
    {"source": 379, "target": 380, "voltage": 345,  "length": 12},
    {"source": 380, "target": 381, "voltage": 345,  "length": 40},
    {"source": 380, "target": 382, "voltage": 345,  "length": 23},
    {"source": 382, "target": 383, "voltage": 345,  "length": 18},
    {"source": 382, "target": 384, "voltage": 345,  "length": 21},
    {"source": 384, "target": 385, "voltage": 345,  "length": 13},
    {"source": 385, "target": 386, "voltage": 345,  "length": 12},
    {"source": 385, "target": 390, "voltage": 345,  "length": 19},
    {"source": 386, "target": 387, "voltage": 345,  "length": 33},
    {"source": 386, "target": 388, "voltage": 345,  "length": 15},
    {"source": 386, "target": 405, "voltage": 345,  "length": 18},
    {"source": 388, "target": 389, "voltage": 345,  "length": 26},
    {"source": 389, "target": 393, "voltage": 345,  "length": 47},
    {"source": 389, "target": 403, "voltage": 345,  "length": 29},
    {"source": 389, "target": 404, "voltage": 345,  "length": 12},
    {"source": 390, "target": 391, "voltage": 345,  "length": 33},
    {"source": 390, "target": 392, "voltage": 345,  "length": 4},
    {"source": 390, "target": 405, "voltage": 345,  "length": 5},
    {"source": 392, "target": 393, "voltage": 345,  "length": 17},
    {"source": 393, "target": 401, "voltage": 345,  "length": 8},
    {"source": 393, "target": 402, "voltage": 345,  "length": 16},
    {"source": 393, "target": 403, "voltage": 345,  "length": 20},
    {"source": 394, "target": 395, "voltage": 345,  "length": 11},
    {"source": 394, "target": 397, "voltage": 345,  "length": 23},
    {"source": 395, "target": 396, "voltage": 345,  "length": 8},
    {"source": 397, "target": 398, "voltage": 345,  "length": 37},
    {"source": 398, "target": 399, "voltage": 345,  "length": 29},
    {"source": 398, "target": 497, "voltage": 345,  "length": 20},
    {"source": 399, "target": 400, "voltage": 345,  "length": 5},
    {"source": 399, "target": 401, "voltage": 345,  "length": 26},
    {"source": 399, "target": 532, "voltage": 345,  "length": 26},
    {"source": 403, "target": 406, "voltage": 345,  "length": 29},
    {"source": 404, "target": 405, "voltage": 345,  "length": 23},
    {"source": 406, "target": 407, "voltage": 345,  "length": 1},
    {"source": 407, "target": 408, "voltage": 345,  "length": 16},
    {"source": 408, "target": 409, "voltage": 345,  "length": 9},
    {"source": 408, "target": 535, "voltage": 345,  "length": 11},
    {"source": 408, "target": 536, "voltage": 345,  "length": 1},
    {"source": 409, "target": 410, "voltage": 345,  "length": 21},
    {"source": 409, "target": 531, "voltage": 345,  "length": 1},
    {"source": 409, "target": 537, "voltage": 345,  "length": 39},
    {"source": 417, "target": 472, "voltage": 345,  "length": 52},
    {"source": 417, "target": 473, "voltage": 345,  "length": 25},
    {"source": 417, "target": 883, "voltage": 345,  "length": 78},
    {"source": 417, "target": 884, "voltage": 345,  "length": 9},
    {"source": 427, "target": 429, "voltage": 345,  "length": 54},
    {"source": 428, "target": 429, "voltage": 345,  "length": 13},
    {"source": 428, "target": 430, "voltage": 345,  "length": 36},
    {"source": 429, "target": 436, "voltage": 345,  "length": 70},
    {"source": 429, "target": 437, "voltage": 345,  "length": 21},
    {"source": 430, "target": 431, "voltage": 345,  "length": 19},
    {"source": 431, "target": 432, "voltage": 345,  "length": 15},
    {"source": 431, "target": 433, "voltage": 345,  "length": 45},
    {"source": 433, "target": 434, "voltage": 345,  "length": 11},
    {"source": 433, "target": 435, "voltage": 345,  "length": 32},
    {"source": 436, "target": 449, "voltage": 345,  "length": 42},
    {"source": 436, "target": 450, "voltage": 345,  "length": 58},
    {"source": 437, "target": 438, "voltage": 345,  "length": 52},
    {"source": 438, "target": 439, "voltage": 345,  "length": 41},
    {"source": 438, "target": 440, "voltage": 345,  "length": 3},
    {"source": 438, "target": 441, "voltage": 345,  "length": 3},
    {"source": 438, "target": 442, "voltage": 345,  "length": 39},
    {"source": 438, "target": 443, "voltage": 345,  "length": 44},
    {"source": 443, "target": 444, "voltage": 345,  "length": 24},
    {"source": 443, "target": 445, "voltage": 345,  "length": 12},
    {"source": 443, "target": 446, "voltage": 345,  "length": 14},
    {"source": 443, "target": 447, "voltage": 345,  "length": 28},
    {"source": 444, "target": 459, "voltage": 345,  "length": 28},
    {"source": 445, "target": 474, "voltage": 345,  "length": 42},
    {"source": 445, "target": 475, "voltage": 345,  "length": 70},
    {"source": 446, "target": 447, "voltage": 345,  "length": 14},
    {"source": 447, "target": 448, "voltage": 345,  "length": 19},
    {"source": 447, "target": 449, "voltage": 345,  "length": 31},
    {"source": 448, "target": 449, "voltage": 345,  "length": 12},
    {"source": 449, "target": 457, "voltage": 345,  "length": 15},
    {"source": 450, "target": 451, "voltage": 345,  "length": 7},
    {"source": 450, "target": 452, "voltage": 345,  "length": 16},
    {"source": 450, "target": 453, "voltage": 345,  "length": 24},
    {"source": 453, "target": 454, "voltage": 345,  "length": 28},
    {"source": 454, "target": 455, "voltage": 345,  "length": 26},
    {"source": 455, "target": 456, "voltage": 345,  "length": 38},
    {"source": 456, "target": 461, "voltage": 345,  "length": 22},
    {"source": 456, "target": 462, "voltage": 345,  "length": 18},
    {"source": 456, "target": 463, "voltage": 345,  "length": 34},
    {"source": 456, "target": 465, "voltage": 345,  "length": 80},
    {"source": 456, "target": 476, "voltage": 345,  "length": 36},
    {"source": 456, "target": 477, "voltage": 345,  "length": 61},
    {"source": 457, "target": 458, "voltage": 345,  "length": 15},
    {"source": 459, "target": 460, "voltage": 345,  "length": 47},
    {"source": 460, "target": 461, "voltage": 345,  "length": 22},
    {"source": 463, "target": 464, "voltage": 345,  "length": 50},
    {"source": 463, "target": 476, "voltage": 345,  "length": 12},
    {"source": 463, "target": 874, "voltage": 345,  "length": 97},
    {"source": 463, "target": 875, "voltage": 345,  "length": 102},
    {"source": 464, "target": 465, "voltage": 345,  "length": 20},
    {"source": 465, "target": 466, "voltage": 345,  "length": 58},
    {"source": 466, "target": 467, "voltage": 345,  "length": 28},
    {"source": 467, "target": 468, "voltage": 345,  "length": 11},
    {"source": 468, "target": 469, "voltage": 345,  "length": 23},
    {"source": 468, "target": 470, "voltage": 345,  "length": 33},
    {"source": 470, "target": 471, "voltage": 345,  "length": 31},
    {"source": 470, "target": 876, "voltage": 345,  "length": 22},
    {"source": 471, "target": 472, "voltage": 345,  "length": 25},
    {"source": 471, "target": 871, "voltage": 345,  "length": 24},
    {"source": 472, "target": 473, "voltage": 345,  "length": 27},
    {"source": 472, "target": 474, "voltage": 345,  "length": 85},
    {"source": 474, "target": 475, "voltage": 345,  "length": 33},
    {"source": 474, "target": 876, "voltage": 345,  "length": 80},
    {"source": 476, "target": 848, "voltage": 345,  "length": 42},
    {"source": 476, "target": 849, "voltage": 345,  "length": 11},
    {"source": 477, "target": 868, "voltage": 345,  "length": 27},
    {"source": 477, "target": 878, "voltage": 345,  "length": 29},
    {"source": 497, "target": 498, "voltage": 345,  "length": 18},
    {"source": 497, "target": 499, "voltage": 345,  "length": 1},
    {"source": 497, "target": 502, "voltage": 345,  "length": 20},
    {"source": 498, "target": 499, "voltage": 345,  "length": 1},
    {"source": 499, "target": 500, "voltage": 345,  "length": 27},
    {"source": 500, "target": 501, "voltage": 345,  "length": 36},
    {"source": 502, "target": 503, "voltage": 345,  "length": 32},
    {"source": 503, "target": 504, "voltage": 345,  "length": 16},
    {"source": 504, "target": 505, "voltage": 345,  "length": 19},
    {"source": 504, "target": 506, "voltage": 345,  "length": 68},
    {"source": 504, "target": 519, "voltage": 345,  "length": 30},
    {"source": 504, "target": 524, "voltage": 345,  "length": 11},
    {"source": 505, "target": 506, "voltage": 345,  "length": 49},
    {"source": 505, "target": 507, "voltage": 345,  "length": 19},
    {"source": 506, "target": 509, "voltage": 345,  "length": 7},
    {"source": 506, "target": 510, "voltage": 345,  "length": 27},
    {"source": 507, "target": 508, "voltage": 345,  "length": 20},
    {"source": 507, "target": 517, "voltage": 345,  "length": 7},
    {"source": 508, "target": 509, "voltage": 345,  "length": 21},
    {"source": 509, "target": 511, "voltage": 345,  "length": 18},
    {"source": 510, "target": 511, "voltage": 345,  "length": 13},
    {"source": 510, "target": 513, "voltage": 345,  "length": 30},
    {"source": 511, "target": 512, "voltage": 345,  "length": 6},
    {"source": 513, "target": 514, "voltage": 345,  "length": 81},
    {"source": 514, "target": 515, "voltage": 345,  "length": 50},
    {"source": 515, "target": 516, "voltage": 345,  "length": 100},
    {"source": 517, "target": 518, "voltage": 345,  "length": 13},
    {"source": 518, "target": 519, "voltage": 345,  "length": 4},
    {"source": 519, "target": 520, "voltage": 345,  "length": 11},
    {"source": 520, "target": 521, "voltage": 345,  "length": 1},
    {"source": 521, "target": 522, "voltage": 345,  "length": 1},
    {"source": 522, "target": 523, "voltage": 345,  "length": 16},
    {"source": 522, "target": 525, "voltage": 345,  "length": 15},
    {"source": 522, "target": 528, "voltage": 345,  "length": 13},
    {"source": 523, "target": 524, "voltage": 345,  "length": 20},
    {"source": 523, "target": 530, "voltage": 345,  "length": 23},
    {"source": 525, "target": 526, "voltage": 345,  "length": 3},
    {"source": 526, "target": 527, "voltage": 345,  "length": 6},
    {"source": 528, "target": 529, "voltage": 345,  "length": 8},
    {"source": 530, "target": 531, "voltage": 345,  "length": 13},
    {"source": 531, "target": 532, "voltage": 345,  "length": 16},
    {"source": 531, "target": 533, "voltage": 345,  "length": 16},
    {"source": 533, "target": 534, "voltage": 345,  "length": 6},
    {"source": 533, "target": 538, "voltage": 345,  "length": 3},
    {"source": 533, "target": 540, "voltage": 345,  "length": 10},
    {"source": 533, "target": 545, "voltage": 345,  "length": 1},
    {"source": 534, "target": 535, "voltage": 345,  "length": 3},
    {"source": 537, "target": 539, "voltage": 345,  "length": 26},
    {"source": 538, "target": 539, "voltage": 345,  "length": 9},
    {"source": 540, "target": 541, "voltage": 345,  "length": 9},
    {"source": 540, "target": 545, "voltage": 345,  "length": 1},
    {"source": 541, "target": 542, "voltage": 345,  "length": 11},
    {"source": 541, "target": 543, "voltage": 345,  "length": 6},
    {"source": 543, "target": 544, "voltage": 345,  "length": 7},
    {"source": 544, "target": 548, "voltage": 345,  "length": 26},
    {"source": 545, "target": 546, "voltage": 345,  "length": 14},
    {"source": 546, "target": 547, "voltage": 345,  "length": 7},
    {"source": 547, "target": 548, "voltage": 345,  "length": 3},
    {"source": 547, "target": 550, "voltage": 345,  "length": 13},
    {"source": 548, "target": 549, "voltage": 345,  "length": 5},
    {"source": 551, "target": 570, "voltage": 345,  "length": 44},
    {"source": 551, "target": 571, "voltage": 345,  "length": 70},
    {"source": 552, "target": 553, "voltage": 345,  "length": 124},
    {"source": 552, "target": 554, "voltage": 345,  "length": 71},
    {"source": 554, "target": 555, "voltage": 345,  "length": 67},
    {"source": 554, "target": 569, "voltage": 345,  "length": 57},
    {"source": 555, "target": 556, "voltage": 345,  "length": 1},
    {"source": 555, "target": 558, "voltage": 345,  "length": 161},
    {"source": 556, "target": 557, "voltage": 345,  "length": 1},
    {"source": 558, "target": 559, "voltage": 345,  "length": 202},
    {"source": 559, "target": 560, "voltage": 345,  "length": 95},
    {"source": 560, "target": 561, "voltage": 345,  "length": 49},
    {"source": 560, "target": 576, "voltage": 345,  "length": 107},
    {"source": 560, "target": 577, "voltage": 345,  "length": 99},
    {"source": 561, "target": 563, "voltage": 345,  "length": 6},
    {"source": 561, "target": 564, "voltage": 345,  "length": 10},
    {"source": 561, "target": 565, "voltage": 345,  "length": 23},
    {"source": 561, "target": 567, "voltage": 345,  "length": 60},
    {"source": 562, "target": 566, "voltage": 345,  "length": 12},
    {"source": 562, "target": 567, "voltage": 345,  "length": 11},
    {"source": 562, "target": 571, "voltage": 345,  "length": 20},
    {"source": 562, "target": 572, "voltage": 345,  "length": 8},
    {"source": 566, "target": 567, "voltage": 345,  "length": 15},
    {"source": 566, "target": 568, "voltage": 345,  "length": 21},
    {"source": 566, "target": 569, "voltage": 345,  "length": 21},
    {"source": 566, "target": 570, "voltage": 345,  "length": 1},
    {"source": 567, "target": 574, "voltage": 345,  "length": 42},
    {"source": 572, "target": 573, "voltage": 345,  "length": 62},
    {"source": 573, "target": 574, "voltage": 345,  "length": 43},
    {"source": 573, "target": 811, "voltage": 345,  "length": 93},
    {"source": 574, "target": 575, "voltage": 345,  "length": 110},
    {"source": 575, "target": 576, "voltage": 345,  "length": 78},
    {"source": 575, "target": 801, "voltage": 345,  "length": 43},
    {"source": 575, "target": 803, "voltage": 345,  "length": 95},
    {"source": 575, "target": 805, "voltage": 345,  "length": 20},
    {"source": 576, "target": 587, "voltage": 345,  "length": 86},
    {"source": 577, "target": 578, "voltage": 345,  "length": 5},
    {"source": 577, "target": 579, "voltage": 345,  "length": 11},
    {"source": 577, "target": 580, "voltage": 345,  "length": 30},
    {"source": 580, "target": 581, "voltage": 345,  "length": 103},
    {"source": 580, "target": 583, "voltage": 345,  "length": 118},
    {"source": 581, "target": 582, "voltage": 345,  "length": 36},
    {"source": 583, "target": 584, "voltage": 345,  "length": 1},
    {"source": 584, "target": 585, "voltage": 345,  "length": 72},
    {"source": 584, "target": 589, "voltage": 345,  "length": 40},
    {"source": 584, "target": 592, "voltage": 345,  "length": 105},
    {"source": 585, "target": 586, "voltage": 345,  "length": 2},
    {"source": 585, "target": 587, "voltage": 345,  "length": 36},
    {"source": 585, "target": 588, "voltage": 345,  "length": 89},
    {"source": 586, "target": 587, "voltage": 345,  "length": 34},
    {"source": 589, "target": 590, "voltage": 345,  "length": 58},
    {"source": 590, "target": 591, "voltage": 345,  "length": 75},
    {"source": 591, "target": 593, "voltage": 345,  "length": 76},
    {"source": 593, "target": 594, "voltage": 345,  "length": 30},
    {"source": 593, "target": 603, "voltage": 345,  "length": 120},
    {"source": 594, "target": 595, "voltage": 345,  "length": 80},
    {"source": 595, "target": 596, "voltage": 345,  "length": 69},
    {"source": 595, "target": 597, "voltage": 345,  "length": 123},
    {"source": 596, "target": 597, "voltage": 345,  "length": 57},
    {"source": 597, "target": 598, "voltage": 345,  "length": 174},
    {"source": 597, "target": 599, "voltage": 345,  "length": 111},
    {"source": 599, "target": 600, "voltage": 345,  "length": 1},
    {"source": 600, "target": 601, "voltage": 345,  "length": 43},
    {"source": 601, "target": 602, "voltage": 345,  "length": 39},
    {"source": 603, "target": 604, "voltage": 345,  "length": 46},
    {"source": 603, "target": 607, "voltage": 345,  "length": 63},
    {"source": 604, "target": 605, "voltage": 345,  "length": 49},
    {"source": 605, "target": 606, "voltage": 345,  "length": 98},
    {"source": 606, "target": 608, "voltage": 345,  "length": 45},
    {"source": 606, "target": 623, "voltage": 345,  "length": 20},
    {"source": 606, "target": 625, "voltage": 345,  "length": 15},
    {"source": 606, "target": 626, "voltage": 345,  "length": 64},
    {"source": 607, "target": 608, "voltage": 345,  "length": 37},
    {"source": 607, "target": 609, "voltage": 345,  "length": 242},
    {"source": 609, "target": 610, "voltage": 345,  "length": 244},
    {"source": 610, "target": 611, "voltage": 345,  "length": 31},
    {"source": 611, "target": 612, "voltage": 345,  "length": 70},
    {"source": 611, "target": 614, "voltage": 345,  "length": 299},
    {"source": 611, "target": 615, "voltage": 345,  "length": 212},
    {"source": 612, "target": 613, "voltage": 345,  "length": 41},
    {"source": 615, "target": 616, "voltage": 345,  "length": 70},
    {"source": 616, "target": 617, "voltage": 345,  "length": 44},
    {"source": 617, "target": 618, "voltage": 345,  "length": 133},
    {"source": 618, "target": 619, "voltage": 345,  "length": 24},
    {"source": 619, "target": 620, "voltage": 345,  "length": 65},
    {"source": 619, "target": 631, "voltage": 345,  "length": 64},
    {"source": 619, "target": 646, "voltage": 345,  "length": 116},
    {"source": 619, "target": 648, "voltage": 345,  "length": 114},
    {"source": 620, "target": 621, "voltage": 345,  "length": 40},
    {"source": 621, "target": 622, "voltage": 345,  "length": 12},
    {"source": 622, "target": 623, "voltage": 345,  "length": 67},
    {"source": 623, "target": 624, "voltage": 345,  "length": 26},
    {"source": 624, "target": 625, "voltage": 345,  "length": 10},
    {"source": 624, "target": 630, "voltage": 345,  "length": 34},
    {"source": 625, "target": 627, "voltage": 345,  "length": 48},
    {"source": 626, "target": 627, "voltage": 345,  "length": 26},
    {"source": 626, "target": 640, "voltage": 345,  "length": 18},
    {"source": 626, "target": 792, "voltage": 345,  "length": 65},
    {"source": 626, "target": 793, "voltage": 345,  "length": 75},
    {"source": 627, "target": 628, "voltage": 345,  "length": 38},
    {"source": 627, "target": 632, "voltage": 345,  "length": 45},
    {"source": 628, "target": 629, "voltage": 345,  "length": 20},
    {"source": 629, "target": 630, "voltage": 345,  "length": 7},
    {"source": 629, "target": 632, "voltage": 345,  "length": 6},
    {"source": 630, "target": 631, "voltage": 345,  "length": 1},
    {"source": 631, "target": 633, "voltage": 345,  "length": 19},
    {"source": 632, "target": 633, "voltage": 345,  "length": 11},
    {"source": 632, "target": 634, "voltage": 345,  "length": 9},
    {"source": 634, "target": 635, "voltage": 345,  "length": 3},
    {"source": 634, "target": 638, "voltage": 345,  "length": 124},
    {"source": 635, "target": 636, "voltage": 345,  "length": 54},
    {"source": 636, "target": 637, "voltage": 345,  "length": 56},
    {"source": 637, "target": 639, "voltage": 345,  "length": 13},
    {"source": 637, "target": 641, "voltage": 345,  "length": 15},
    {"source": 638, "target": 639, "voltage": 345,  "length": 16},
    {"source": 638, "target": 645, "voltage": 345,  "length": 8},
    {"source": 638, "target": 646, "voltage": 345,  "length": 62},
    {"source": 639, "target": 640, "voltage": 345,  "length": 104},
    {"source": 641, "target": 642, "voltage": 345,  "length": 10},
    {"source": 642, "target": 643, "voltage": 345,  "length": 1},
    {"source": 643, "target": 644, "voltage": 345,  "length": 9},
    {"source": 644, "target": 645, "voltage": 345,  "length": 9},
    {"source": 644, "target": 679, "voltage": 345,  "length": 50},
    {"source": 646, "target": 647, "voltage": 345,  "length": 15},
    {"source": 648, "target": 649, "voltage": 345,  "length": 19},
    {"source": 649, "target": 650, "voltage": 345,  "length": 25},
    {"source": 650, "target": 651, "voltage": 345,  "length": 29},
    {"source": 651, "target": 652, "voltage": 345,  "length": 56},
    {"source": 652, "target": 653, "voltage": 345,  "length": 13},
    {"source": 652, "target": 654, "voltage": 345,  "length": 15},
    {"source": 652, "target": 666, "voltage": 345,  "length": 1},
    {"source": 652, "target": 667, "voltage": 345,  "length": 1},
    {"source": 652, "target": 668, "voltage": 345,  "length": 1},
    {"source": 653, "target": 654, "voltage": 345,  "length": 10},
    {"source": 654, "target": 655, "voltage": 345,  "length": 28},
    {"source": 654, "target": 657, "voltage": 345,  "length": 11},
    {"source": 655, "target": 656, "voltage": 345,  "length": 27},
    {"source": 656, "target": 657, "voltage": 345,  "length": 10},
    {"source": 656, "target": 661, "voltage": 345,  "length": 1},
    {"source": 656, "target": 662, "voltage": 345,  "length": 14},
    {"source": 656, "target": 663, "voltage": 345,  "length": 1},
    {"source": 657, "target": 658, "voltage": 345,  "length": 26},
    {"source": 657, "target": 659, "voltage": 345,  "length": 32},
    {"source": 658, "target": 659, "voltage": 345,  "length": 6},
    {"source": 659, "target": 660, "voltage": 345,  "length": 21},
    {"source": 659, "target": 661, "voltage": 345,  "length": 1},
    {"source": 662, "target": 663, "voltage": 345,  "length": 1},
    {"source": 663, "target": 664, "voltage": 345,  "length": 38},
    {"source": 663, "target": 665, "voltage": 345,  "length": 13},
    {"source": 664, "target": 665, "voltage": 345,  "length": 38},
    {"source": 665, "target": 666, "voltage": 345,  "length": 25},
    {"source": 665, "target": 683, "voltage": 345,  "length": 83},
    {"source": 666, "target": 669, "voltage": 345,  "length": 32},
    {"source": 668, "target": 669, "voltage": 345,  "length": 20},
    {"source": 668, "target": 670, "voltage": 345,  "length": 38},
    {"source": 669, "target": 670, "voltage": 345,  "length": 30},
    {"source": 670, "target": 671, "voltage": 345,  "length": 14},
    {"source": 671, "target": 672, "voltage": 345,  "length": 16},
    {"source": 672, "target": 673, "voltage": 345,  "length": 17},
    {"source": 673, "target": 674, "voltage": 345,  "length": 6},
    {"source": 674, "target": 675, "voltage": 345,  "length": 72},
    {"source": 675, "target": 676, "voltage": 345,  "length": 38},
    {"source": 676, "target": 677, "voltage": 345,  "length": 32},
    {"source": 677, "target": 678, "voltage": 345,  "length": 13},
    {"source": 678, "target": 679, "voltage": 345,  "length": 54},
    {"source": 678, "target": 681, "voltage": 345,  "length": 17},
    {"source": 678, "target": 718, "voltage": 345,  "length": 16},
    {"source": 679, "target": 680, "voltage": 345,  "length": 36},
    {"source": 681, "target": 682, "voltage": 345,  "length": 170},
    {"source": 681, "target": 719, "voltage": 345,  "length": 26},
    {"source": 682, "target": 788, "voltage": 345,  "length": 43},
    {"source": 682, "target": 789, "voltage": 345,  "length": 64},
    {"source": 682, "target": 820, "voltage": 345,  "length": 23},
    {"source": 682, "target": 822, "voltage": 345,  "length": 50},
    {"source": 683, "target": 684, "voltage": 345,  "length": 80},
    {"source": 684, "target": 685, "voltage": 345,  "length": 20},
    {"source": 685, "target": 686, "voltage": 345,  "length": 30},
    {"source": 685, "target": 693, "voltage": 345,  "length": 48},
    {"source": 686, "target": 687, "voltage": 345,  "length": 141},
    {"source": 686, "target": 689, "voltage": 345,  "length": 51},
    {"source": 687, "target": 688, "voltage": 345,  "length": 79},
    {"source": 689, "target": 690, "voltage": 345,  "length": 29},
    {"source": 689, "target": 693, "voltage": 345,  "length": 24},
    {"source": 690, "target": 691, "voltage": 345,  "length": 72},
    {"source": 691, "target": 692, "voltage": 345,  "length": 76},
    {"source": 693, "target": 694, "voltage": 345,  "length": 20},
    {"source": 694, "target": 695, "voltage": 345,  "length": 51},
    {"source": 694, "target": 696, "voltage": 345,  "length": 8},
    {"source": 694, "target": 700, "voltage": 345,  "length": 38},
    {"source": 695, "target": 697, "voltage": 345,  "length": 6},
    {"source": 696, "target": 697, "voltage": 345,  "length": 34},
    {"source": 696, "target": 698, "voltage": 345,  "length": 11},
    {"source": 697, "target": 698, "voltage": 345,  "length": 31},
    {"source": 697, "target": 699, "voltage": 345,  "length": 51},
    {"source": 698, "target": 702, "voltage": 345,  "length": 28},
    {"source": 700, "target": 701, "voltage": 345,  "length": 22},
    {"source": 701, "target": 703, "voltage": 345,  "length": 55},
    {"source": 701, "target": 739, "voltage": 345,  "length": 40},
    {"source": 702, "target": 738, "voltage": 345,  "length": 59},
    {"source": 703, "target": 704, "voltage": 345,  "length": 17},
    {"source": 703, "target": 705, "voltage": 345,  "length": 52},
    {"source": 705, "target": 706, "voltage": 345,  "length": 49},
    {"source": 705, "target": 707, "voltage": 345,  "length": 35},
    {"source": 706, "target": 707, "voltage": 345,  "length": 15},
    {"source": 706, "target": 708, "voltage": 345,  "length": 28},
    {"source": 706, "target": 725, "voltage": 345,  "length": 27},
    {"source": 708, "target": 709, "voltage": 345,  "length": 20},
    {"source": 708, "target": 725, "voltage": 345,  "length": 22},
    {"source": 709, "target": 710, "voltage": 345,  "length": 13},
    {"source": 710, "target": 711, "voltage": 345,  "length": 1},
    {"source": 710, "target": 712, "voltage": 345,  "length": 8},
    {"source": 710, "target": 723, "voltage": 345,  "length": 40},
    {"source": 710, "target": 724, "voltage": 345,  "length": 73},
    {"source": 712, "target": 713, "voltage": 345,  "length": 33},
    {"source": 713, "target": 714, "voltage": 345,  "length": 5},
    {"source": 714, "target": 715, "voltage": 345,  "length": 50},
    {"source": 713, "target": 716, "voltage": 345,  "length": 14},
    {"source": 713, "target": 722, "voltage": 345,  "length": 2},
    {"source": 713, "target": 723, "voltage": 345,  "length": 2},
    {"source": 716, "target": 717, "voltage": 345,  "length": 14},
    {"source": 717, "target": 718, "voltage": 345,  "length": 28},
    {"source": 718, "target": 719, "voltage": 345,  "length": 24},
    {"source": 719, "target": 720, "voltage": 345,  "length": 28},
    {"source": 720, "target": 721, "voltage": 345,  "length": 20},
    {"source": 721, "target": 722, "voltage": 345,  "length": 16},
    {"source": 722, "target": 723, "voltage": 345,  "length": 1},
    {"source": 724, "target": 745, "voltage": 345,  "length": 18},
    {"source": 724, "target": 748, "voltage": 345,  "length": 14},
    {"source": 724, "target": 749, "voltage": 345,  "length": 1},
    {"source": 724, "target": 750, "voltage": 345,  "length": 5},
    {"source": 724, "target": 752, "voltage": 345,  "length": 6},
    {"source": 725, "target": 726, "voltage": 345,  "length": 40},
    {"source": 726, "target": 727, "voltage": 345,  "length": 10},
    {"source": 726, "target": 748, "voltage": 345,  "length": 20},
    {"source": 727, "target": 728, "voltage": 345,  "length": 18},
    {"source": 728, "target": 729, "voltage": 345,  "length": 13},
    {"source": 728, "target": 730, "voltage": 345,  "length": 19},
    {"source": 728, "target": 744, "voltage": 345,  "length": 15},
    {"source": 728, "target": 748, "voltage": 345,  "length": 36},
    {"source": 729, "target": 730, "voltage": 345,  "length": 6},
    {"source": 729, "target": 731, "voltage": 345,  "length": 1},
    {"source": 730, "target": 732, "voltage": 345,  "length": 11},
    {"source": 730, "target": 736, "voltage": 345,  "length": 61},
    {"source": 730, "target": 740, "voltage": 345,  "length": 26},
    {"source": 732, "target": 733, "voltage": 345,  "length": 2},
    {"source": 732, "target": 734, "voltage": 345,  "length": 13},
    {"source": 732, "target": 736, "voltage": 345,  "length": 55},
    {"source": 734, "target": 735, "voltage": 345,  "length": 12},
    {"source": 735, "target": 736, "voltage": 345,  "length": 31},
    {"source": 736, "target": 737, "voltage": 345,  "length": 16},
    {"source": 736, "target": 738, "voltage": 345,  "length": 33},
    {"source": 738, "target": 739, "voltage": 345,  "length": 33},
    {"source": 740, "target": 741, "voltage": 345,  "length": 6},
    {"source": 741, "target": 742, "voltage": 345,  "length": 5},
    {"source": 742, "target": 743, "voltage": 345,  "length": 4},
    {"source": 743, "target": 744, "voltage": 345,  "length": 5},
    {"source": 743, "target": 745, "voltage": 345,  "length": 17},
    {"source": 743, "target": 746, "voltage": 345,  "length": 9},
    {"source": 745, "target": 746, "voltage": 345,  "length": 8},
    {"source": 745, "target": 747, "voltage": 345,  "length": 8},
    {"source": 745, "target": 762, "voltage": 345,  "length": 21},
    {"source": 745, "target": 764, "voltage": 345,  "length": 9},
    {"source": 748, "target": 749, "voltage": 345,  "length": 13},
    {"source": 749, "target": 751, "voltage": 345,  "length": 1},
    {"source": 752, "target": 753, "voltage": 345,  "length": 25},
    {"source": 753, "target": 757, "voltage": 345,  "length": 43},
    {"source": 753, "target": 758, "voltage": 345,  "length": 96},
    {"source": 753, "target": 760, "voltage": 345,  "length": 13},
    {"source": 753, "target": 762, "voltage": 345,  "length": 24},
    {"source": 754, "target": 755, "voltage": 345,  "length": 26},
    {"source": 755, "target": 756, "voltage": 345,  "length": 36},
    {"source": 755, "target": 776, "voltage": 345,  "length": 23},
    {"source": 756, "target": 761, "voltage": 345,  "length": 11},
    {"source": 756, "target": 889, "voltage": 345,  "length": 6},
    {"source": 756, "target": 905, "voltage": 345,  "length": 25},
    {"source": 757, "target": 779, "voltage": 345,  "length": 1},
    {"source": 757, "target": 782, "voltage": 345,  "length": 27},
    {"source": 758, "target": 759, "voltage": 345,  "length": 10},
    {"source": 760, "target": 761, "voltage": 345,  "length": 19},
    {"source": 761, "target": 762, "voltage": 345,  "length": 9},
    {"source": 761, "target": 766, "voltage": 345,  "length": 21},
    {"source": 761, "target": 770, "voltage": 345,  "length": 18},
    {"source": 762, "target": 763, "voltage": 345,  "length": 13},
    {"source": 762, "target": 764, "voltage": 345,  "length": 13},
    {"source": 762, "target": 765, "voltage": 345,  "length": 20},
    {"source": 766, "target": 767, "voltage": 345,  "length": 5},
    {"source": 766, "target": 768, "voltage": 345,  "length": 9},
    {"source": 767, "target": 769, "voltage": 345,  "length": 2},
    {"source": 768, "target": 769, "voltage": 345,  "length": 3},
    {"source": 770, "target": 771, "voltage": 345,  "length": 8},
    {"source": 771, "target": 772, "voltage": 345,  "length": 7},
    {"source": 771, "target": 773, "voltage": 345,  "length": 6},
    {"source": 771, "target": 774, "voltage": 345,  "length": 1},
    {"source": 771, "target": 775, "voltage": 345,  "length": 13},
    {"source": 773, "target": 774, "voltage": 345,  "length": 1},
    {"source": 777, "target": 778, "voltage": 345,  "length": 20},
    {"source": 777, "target": 779, "voltage": 345,  "length": 1},
    {"source": 778, "target": 855, "voltage": 345,  "length": 1},
    {"source": 782, "target": 855, "voltage": 345,  "length": 1},
    {"source": 778, "target": 783, "voltage": 345,  "length": 6},
    {"source": 778, "target": 784, "voltage": 345,  "length": 28},
    {"source": 779, "target": 780, "voltage": 345,  "length": 23},
    {"source": 780, "target": 781, "voltage": 345,  "length": 21},
    {"source": 784, "target": 785, "voltage": 345,  "length": 31},
    {"source": 785, "target": 786, "voltage": 345,  "length": 50},
    {"source": 785, "target": 847, "voltage": 345,  "length": 22},
    {"source": 786, "target": 787, "voltage": 345,  "length": 13},
    {"source": 786, "target": 835, "voltage": 345,  "length": 18},
    {"source": 786, "target": 836, "voltage": 345,  "length": 9},
    {"source": 787, "target": 788, "voltage": 345,  "length": 23},
    {"source": 787, "target": 824, "voltage": 345,  "length": 22},
    {"source": 789, "target": 790, "voltage": 345,  "length": 89},
    {"source": 790, "target": 791, "voltage": 345,  "length": 19},
    {"source": 790, "target": 810, "voltage": 345,  "length": 29},
    {"source": 791, "target": 792, "voltage": 345,  "length": 56},
    {"source": 792, "target": 793, "voltage": 345,  "length": 28},
    {"source": 792, "target": 794, "voltage": 345,  "length": 32},
    {"source": 794, "target": 795, "voltage": 345,  "length": 16},
    {"source": 795, "target": 796, "voltage": 345,  "length": 30},
    {"source": 795, "target": 798, "voltage": 345,  "length": 37},
    {"source": 796, "target": 797, "voltage": 345,  "length": 16},
    {"source": 797, "target": 804, "voltage": 345,  "length": 33},
    {"source": 797, "target": 807, "voltage": 345,  "length": 41},
    {"source": 797, "target": 808, "voltage": 345,  "length": 19},
    {"source": 798, "target": 799, "voltage": 345,  "length": 24},
    {"source": 799, "target": 800, "voltage": 345,  "length": 97},
    {"source": 799, "target": 802, "voltage": 345,  "length": 57},
    {"source": 800, "target": 801, "voltage": 345,  "length": 54},
    {"source": 802, "target": 803, "voltage": 345,  "length": 29},
    {"source": 803, "target": 804, "voltage": 345,  "length": 38},
    {"source": 805, "target": 806, "voltage": 345,  "length": 98},
    {"source": 805, "target": 811, "voltage": 345,  "length": 16},
    {"source": 806, "target": 807, "voltage": 345,  "length": 60},
    {"source": 806, "target": 811, "voltage": 345,  "length": 98},
    {"source": 807, "target": 808, "voltage": 345,  "length": 31},
    {"source": 807, "target": 814, "voltage": 345,  "length": 84},
    {"source": 808, "target": 809, "voltage": 345,  "length": 10},
    {"source": 809, "target": 810, "voltage": 345,  "length": 12},
    {"source": 811, "target": 812, "voltage": 345,  "length": 30},
    {"source": 812, "target": 813, "voltage": 345,  "length": 55},
    {"source": 812, "target": 814, "voltage": 345,  "length": 84},
    {"source": 814, "target": 815, "voltage": 345,  "length": 48},
    {"source": 816, "target": 817, "voltage": 345,  "length": 53},
    {"source": 817, "target": 818, "voltage": 345,  "length": 37},
    {"source": 817, "target": 821, "voltage": 345,  "length": 44},
    {"source": 817, "target": 829, "voltage": 345,  "length": 37},
    {"source": 817, "target": 830, "voltage": 345,  "length": 67},
    {"source": 818, "target": 819, "voltage": 345,  "length": 11},
    {"source": 820, "target": 821, "voltage": 345,  "length": 32},
    {"source": 821, "target": 822, "voltage": 345,  "length": 40},
    {"source": 822, "target": 823, "voltage": 345,  "length": 13},
    {"source": 822, "target": 824, "voltage": 345,  "length": 24},
    {"source": 822, "target": 825, "voltage": 345,  "length": 6},
    {"source": 823, "target": 824, "voltage": 345,  "length": 11},
    {"source": 825, "target": 826, "voltage": 345,  "length": 24},
    {"source": 826, "target": 827, "voltage": 345,  "length": 21},
    {"source": 826, "target": 828, "voltage": 345,  "length": 33},
    {"source": 827, "target": 828, "voltage": 345,  "length": 13},
    {"source": 828, "target": 833, "voltage": 345,  "length": 17},
    {"source": 828, "target": 834, "voltage": 345,  "length": 30},
    {"source": 829, "target": 830, "voltage": 345,  "length": 35},
    {"source": 830, "target": 831, "voltage": 345,  "length": 67},
    {"source": 832, "target": 833, "voltage": 345,  "length": 63},
    {"source": 832, "target": 840, "voltage": 345,  "length": 58},
    {"source": 834, "target": 835, "voltage": 345,  "length": 36},
    {"source": 834, "target": 837, "voltage": 345,  "length": 13},
    {"source": 834, "target": 838, "voltage": 345,  "length": 21},
    {"source": 836, "target": 837, "voltage": 345,  "length": 47},
    {"source": 837, "target": 839, "voltage": 345,  "length": 39},
    {"source": 839, "target": 841, "voltage": 345,  "length": 35},
    {"source": 839, "target": 843, "voltage": 345,  "length": 37},
    {"source": 841, "target": 842, "voltage": 345,  "length": 33},
    {"source": 843, "target": 844, "voltage": 345,  "length": 25},
    {"source": 844, "target": 845, "voltage": 345,  "length": 26},
    {"source": 845, "target": 846, "voltage": 345,  "length": 1},
    {"source": 845, "target": 848, "voltage": 345,  "length": 1},
    {"source": 845, "target": 853, "voltage": 345,  "length": 21},
    {"source": 846, "target": 847, "voltage": 345,  "length": 15},
    {"source": 849, "target": 850, "voltage": 345,  "length": 73},
    {"source": 850, "target": 851, "voltage": 345,  "length": 15},
    {"source": 851, "target": 852, "voltage": 345,  "length": 13},
    {"source": 852, "target": 869, "voltage": 345,  "length": 28},
    {"source": 852, "target": 870, "voltage": 345,  "length": 14},
    {"source": 852, "target": 872, "voltage": 345,  "length": 11},
    {"source": 853, "target": 854, "voltage": 345,  "length": 35},
    {"source": 854, "target": 858, "voltage": 345,  "length": 1},
    {"source": 854, "target": 859, "voltage": 345,  "length": 20},
    {"source": 855, "target": 856, "voltage": 345,  "length": 33},
    {"source": 856, "target": 857, "voltage": 345,  "length": 15},
    {"source": 857, "target": 858, "voltage": 345,  "length": 3},
    {"source": 859, "target": 860, "voltage": 345,  "length": 12},
    {"source": 860, "target": 861, "voltage": 345,  "length": 40},
    {"source": 860, "target": 862, "voltage": 345,  "length": 45},
    {"source": 860, "target": 863, "voltage": 345,  "length": 4},
    {"source": 861, "target": 867, "voltage": 345,  "length": 1},
    {"source": 862, "target": 880, "voltage": 345,  "length": 3},
    {"source": 862, "target": 881, "voltage": 345,  "length": 13},
    {"source": 862, "target": 890, "voltage": 345,  "length": 23},
    {"source": 863, "target": 864, "voltage": 345,  "length": 1},
    {"source": 864, "target": 865, "voltage": 345,  "length": 1},
    {"source": 864, "target": 869, "voltage": 345,  "length": 32},
    {"source": 865, "target": 866, "voltage": 345,  "length": 40},
    {"source": 866, "target": 867, "voltage": 345,  "length": 1},
    {"source": 866, "target": 868, "voltage": 345,  "length": 1},
    {"source": 870, "target": 871, "voltage": 345,  "length": 11},
    {"source": 872, "target": 873, "voltage": 345,  "length": 8},
    {"source": 873, "target": 874, "voltage": 345,  "length": 10},
    {"source": 874, "target": 877, "voltage": 345,  "length": 9},
    {"source": 875, "target": 876, "voltage": 345,  "length": 10},
    {"source": 876, "target": 877, "voltage": 345,  "length": 12},
    {"source": 878, "target": 879, "voltage": 345,  "length": 32},
    {"source": 881, "target": 882, "voltage": 345,  "length": 9},
    {"source": 881, "target": 883, "voltage": 345,  "length": 77},
    {"source": 882, "target": 883, "voltage": 345,  "length": 68},
    {"source": 883, "target": 887, "voltage": 345,  "length": 19},
    {"source": 883, "target": 888, "voltage": 345,  "length": 47},
    {"source": 884, "target": 885, "voltage": 345,  "length": 8},
    {"source": 884, "target": 886, "voltage": 345,  "length": 61},
    {"source": 886, "target": 887, "voltage": 345,  "length": 21},
    {"source": 888, "target": 900, "voltage": 345,  "length": 27},
    {"source": 888, "target": 905, "voltage": 345,  "length": 7},
    {"source": 889, "target": 906, "voltage": 345,  "length": 19},
    {"source": 893, "target": 895, "voltage": 345,  "length": 17},
    {"source": 893, "target": 896, "voltage": 345,  "length": 23},
    {"source": 895, "target": 911, "voltage": 345,  "length": 1},
    {"source": 896, "target": 897, "voltage": 345,  "length": 31},
    {"source": 896, "target": 899, "voltage": 345,  "length": 28},
    {"source": 897, "target": 898, "voltage": 345,  "length": 19},
    {"source": 899, "target": 900, "voltage": 345,  "length": 32},
    {"source": 900, "target": 901, "voltage": 345,  "length": 23},
    {"source": 901, "target": 902, "voltage": 345,  "length": 4},
    {"source": 900, "target": 903, "voltage": 345,  "length": 32},
    {"source": 900, "target": 905, "voltage": 345,  "length": 31},
    {"source": 902, "target": 903, "voltage": 345,  "length": 12},
    {"source": 902, "target": 904, "voltage": 345,  "length": 29},
    {"source": 905, "target": 906, "voltage": 345,  "length": 12},
    {"source": 907, "target": 908, "voltage": 345,  "length": 9},
    {"source": 908, "target": 909, "voltage": 345,  "length": 1},
    {"source": 908, "target": 910, "voltage": 345,  "length": 1},
    {"source": 909, "target": 910, "voltage": 345,  "length": 1},
    {"source": 909, "target": 911, "voltage": 345,  "length": 40},
    {"source": 909, "target": 912, "voltage": 345,  "length": 46},
    {"source": 909, "target": 913, "voltage": 345,  "length": 87},
    {"source": 911, "target": 917, "voltage": 345,  "length": 46},
    {"source": 911, "target": 932, "voltage": 345,  "length": 28},
    {"source": 911, "target": 933, "voltage": 345,  "length": 59},
    {"source": 912, "target": 914, "voltage": 345,  "length": 30},
    {"source": 912, "target": 915, "voltage": 345,  "length": 2},
    {"source": 912, "target": 916, "voltage": 345,  "length": 17},
    {"source": 912, "target": 917, "voltage": 345,  "length": 16},
    {"source": 913, "target": 914, "voltage": 345,  "length": 19},
    {"source": 913, "target": 919, "voltage": 345,  "length": 35},
    {"source": 913, "target": 925, "voltage": 345,  "length": 47},
    {"source": 916, "target": 917, "voltage": 345,  "length": 23},
    {"source": 917, "target": 918, "voltage": 345,  "length": 80},
    {"source": 917, "target": 919, "voltage": 345,  "length": 15},
    {"source": 918, "target": 919, "voltage": 345,  "length": 75},
    {"source": 918, "target": 920, "voltage": 345,  "length": 9},
    {"source": 918, "target": 921, "voltage": 345,  "length": 82},
    {"source": 919, "target": 925, "voltage": 345,  "length": 52},
    {"source": 921, "target": 922, "voltage": 345,  "length": 52},
    {"source": 922, "target": 923, "voltage": 345,  "length": 121},
    {"source": 923, "target": 924, "voltage": 345,  "length": 3},
    {"source": 923, "target": 927, "voltage": 345,  "length": 12},
    {"source": 923, "target": 928, "voltage": 345,  "length": 36},
    {"source": 925, "target": 926, "voltage": 345,  "length": 2},
    {"source": 925, "target": 927, "voltage": 345,  "length": 47},
    {"source": 925, "target": 941, "voltage": 345,  "length": 15},
    {"source": 927, "target": 939, "voltage": 345,  "length": 49},
    {"source": 929, "target": 930, "voltage": 345,  "length": 56},
    {"source": 929, "target": 931, "voltage": 345,  "length": 14},
    {"source": 932, "target": 934, "voltage": 345,  "length": 42},
    {"source": 933, "target": 935, "voltage": 345,  "length": 28},
    {"source": 934, "target": 935, "voltage": 345,  "length": 64},
    {"source": 935, "target": 936, "voltage": 345,  "length": 20},
    {"source": 935, "target": 937, "voltage": 345,  "length": 16},
    {"source": 937, "target": 938, "voltage": 345,  "length": 55},
    {"source": 939, "target": 940, "voltage": 345,  "length": 31},
    {"source": 940, "target": 941, "voltage": 345,  "length": 42},
    {"source": 941, "target": 942, "voltage": 345,  "length": 5},

    {"source": 75, "target": 337, "voltage": 230,  "length": 13},

    {"source": 488, "target": 494, "voltage": 138,  "length": 2},
    {"source": 488, "target": 496, "voltage": 138,  "length": 8},
    {"source": 494, "target": 495, "voltage": 138,  "length": 5},

    {"source": 483, "target": 484, "voltage": 69,  "length": 4},
    {"source": 483, "target": 489, "voltage": 69,  "length": 5},
    {"source": 484, "target": 485, "voltage": 69,  "length": 2},
    {"source": 485, "target": 486, "voltage": 69,  "length": 2},
    {"source": 486, "target": 487, "voltage": 69,  "length": 3},
    {"source": 487, "target": 488, "voltage": 69,  "length": 2},
    {"source": 488, "target": 489, "voltage": 69,  "length": 2},
    {"source": 488, "target": 490, "voltage": 69,  "length": 2},
    {"source": 490, "target": 491, "voltage": 69,  "length": 2},
    {"source": 491, "target": 492, "voltage": 69,  "length": 1},
    {"source": 492, "target": 493, "voltage": 69,  "length": 3}
  ]
}

